SiteID,SiteName,SensorGroup,Backend,Access,Usr,Pwd,Latitude,Longitude,Owner,Contact,ProviderURL,NetworkInfoWebsite,Description,ServerName
BoMLatest_94596_IDN60801,Ballina,BoM,BoM_Latest,Public,NA,NA,-28.8353,153.5585,Bureau of Meteorology,ross.searle@csiro.au,http://www.bom.gov.au,http://www.bom.gov.au,Latest 72 hours weather observations for each station (30 min intervals).,http://www.bom.gov.au/products
BoMLatest_94599_IDN60801,Cape Byron,BoM,BoM_Latest,Public,NA,NA,-28.6399,153.6358,Bureau of Meteorology,ross.searle@csiro.au,http://www.bom.gov.au,http://www.bom.gov.au,Latest 72 hours weather observations for each station (30 min intervals).,http://www.bom.gov.au/products
BoMLatest_94573_IDN60801,Casino,BoM,BoM_Latest,Public,NA,NA,-28.8824,153.0618,Bureau of Meteorology,ross.searle@csiro.au,http://www.bom.gov.au,http://www.bom.gov.au,Latest 72 hours weather observations for each station (30 min intervals).,http://www.bom.gov.au/products
BoMLatest_94592_IDN60801,Coolangatta,BoM,BoM_Latest,Public,NA,NA,-28.1681,153.5053,Bureau of Meteorology,ross.searle@csiro.au,http://www.bom.gov.au,http://www.bom.gov.au,Latest 72 hours weather observations for each station (30 min intervals).,http://www.bom.gov.au/products
BoMLatest_94598_IDN60801,Evans Head,BoM,BoM_Latest,Public,NA,NA,-29.183,153.3964,Bureau of Meteorology,ross.searle@csiro.au,http://www.bom.gov.au,http://www.bom.gov.au,Latest 72 hours weather observations for each station (30 min intervals).,http://www.bom.gov.au/products
BoMLatest_95571_IDN60801,Grafton AgRS,BoM,BoM_Latest,Public,NA,NA,-29.6224,152.9605,Bureau of Meteorology,ross.searle@csiro.au,http://www.bom.gov.au,http://www.bom.gov.au,Latest 72 hours weather observations for each station (30 min intervals).,http://www.bom.gov.au/products
BoMLatest_95570_IDN60801,Grafton Airport,BoM,BoM_Latest,Public,NA,NA,-29.7583,153.0297,Bureau of Meteorology,ross.searle@csiro.au,http://www.bom.gov.au,http://www.bom.gov.au,Latest 72 hours weather observations for each station (30 min intervals).,http://www.bom.gov.au/products
BoMLatest_94572_IDN60801,Lismore Airport,BoM,BoM_Latest,Public,NA,NA,-28.8305,153.2601,Bureau of Meteorology,ross.searle@csiro.au,http://www.bom.gov.au,http://www.bom.gov.au,Latest 72 hours weather observations for each station (30 min intervals).,http://www.bom.gov.au/products
BoMLatest_94582_IDN60801,Murwillumbah,BoM,BoM_Latest,Public,NA,NA,-28.3395,153.3809,Bureau of Meteorology,ross.searle@csiro.au,http://www.bom.gov.au,http://www.bom.gov.au,Latest 72 hours weather observations for each station (30 min intervals).,http://www.bom.gov.au/products
BoMLatest_94589_IDN60801,Yamba,BoM,BoM_Latest,Public,NA,NA,-29.4335,153.3632,Bureau of Meteorology,ross.searle@csiro.au,http://www.bom.gov.au,http://www.bom.gov.au,Latest 72 hours weather observations for each station (30 min intervals).,http://www.bom.gov.au/products
BoMLatest_95729_IDN60801,Coffs Harbour Airport,BoM,BoM_Latest,Public,NA,NA,-30.3189,153.1162,Bureau of Meteorology,ross.searle@csiro.au,http://www.bom.gov.au,http://www.bom.gov.au,Latest 72 hours weather observations for each station (30 min intervals).,http://www.bom.gov.au/products
BoMLatest_94789_IDN60801,Dorrigo,BoM,BoM_Latest,Public,NA,NA,-30.3444,152.7187,Bureau of Meteorology,ross.searle@csiro.au,http://www.bom.gov.au,http://www.bom.gov.au,Latest 72 hours weather observations for each station (30 min intervals).,http://www.bom.gov.au/products
BoMLatest_95778_IDN60801,Forster,BoM,BoM_Latest,Public,NA,NA,-32.1756,152.5089,Bureau of Meteorology,ross.searle@csiro.au,http://www.bom.gov.au,http://www.bom.gov.au,Latest 72 hours weather observations for each station (30 min intervals).,http://www.bom.gov.au/products
BoMLatest_94785_IDN60801,Kempsey Airport,BoM,BoM_Latest,Public,NA,NA,-31.0711,152.7717,Bureau of Meteorology,ross.searle@csiro.au,http://www.bom.gov.au,http://www.bom.gov.au,Latest 72 hours weather observations for each station (30 min intervals).,http://www.bom.gov.au/products
BoMLatest_94783_IDN60801,Mount Seaview,BoM,BoM_Latest,Public,NA,NA,-31.3865,152.2482,Bureau of Meteorology,ross.searle@csiro.au,http://www.bom.gov.au,http://www.bom.gov.au,Latest 72 hours weather observations for each station (30 min intervals).,http://www.bom.gov.au/products
BoMLatest_94786_IDN60801,Port Macquarie Airport,BoM,BoM_Latest,Public,NA,NA,-31.4335,152.8655,Bureau of Meteorology,ross.searle@csiro.au,http://www.bom.gov.au,http://www.bom.gov.au,Latest 72 hours weather observations for each station (30 min intervals).,http://www.bom.gov.au/products
BoMLatest_94790_IDN60801,Smoky Cape,BoM,BoM_Latest,Public,NA,NA,-30.9225,153.0871,Bureau of Meteorology,ross.searle@csiro.au,http://www.bom.gov.au,http://www.bom.gov.au,Latest 72 hours weather observations for each station (30 min intervals).,http://www.bom.gov.au/products
BoMLatest_95784_IDN60801,Taree Airport,BoM,BoM_Latest,Public,NA,NA,-31.8896,152.512,Bureau of Meteorology,ross.searle@csiro.au,http://www.bom.gov.au,http://www.bom.gov.au,Latest 72 hours weather observations for each station (30 min intervals).,http://www.bom.gov.au/products
BoMLatest_95771_IDN60801,Cessnock Airport,BoM,BoM_Latest,Public,NA,NA,-32.7886,151.3377,Bureau of Meteorology,ross.searle@csiro.au,http://www.bom.gov.au,http://www.bom.gov.au,Latest 72 hours weather observations for each station (30 min intervals).,http://www.bom.gov.au/products
BoMLatest_94782_IDN60801,Gosford,BoM,BoM_Latest,Public,NA,NA,-33.4351,151.3614,Bureau of Meteorology,ross.searle@csiro.au,http://www.bom.gov.au,http://www.bom.gov.au,Latest 72 hours weather observations for each station (30 min intervals).,http://www.bom.gov.au/products
BoMLatest_95767_IDN60801,Lake Macquarie - Cooranbong,BoM,BoM_Latest,Public,NA,NA,-33.0887,151.4636,Bureau of Meteorology,ross.searle@csiro.au,http://www.bom.gov.au,http://www.bom.gov.au,Latest 72 hours weather observations for each station (30 min intervals).,http://www.bom.gov.au/products
BoMLatest_95772_IDN60801,Lostock,BoM,BoM_Latest,Public,NA,NA,-32.3322,151.4595,Bureau of Meteorology,ross.searle@csiro.au,http://www.bom.gov.au,http://www.bom.gov.au,Latest 72 hours weather observations for each station (30 min intervals).,http://www.bom.gov.au/products
BoMLatest_95774_IDN60801,Mangrove Mountain,BoM,BoM_Latest,Public,NA,NA,-33.2894,151.2107,Bureau of Meteorology,ross.searle@csiro.au,http://www.bom.gov.au,http://www.bom.gov.au,Latest 72 hours weather observations for each station (30 min intervals).,http://www.bom.gov.au/products
BoMLatest_95754_IDN60801,Merriwa,BoM,BoM_Latest,Public,NA,NA,-32.1852,150.1737,Bureau of Meteorology,ross.searle@csiro.au,http://www.bom.gov.au,http://www.bom.gov.au,Latest 72 hours weather observations for each station (30 min intervals).,http://www.bom.gov.au/products
BoMLatest_94756_IDN60801,Murrurundi,BoM,BoM_Latest,Public,NA,NA,-31.7651,150.8363,Bureau of Meteorology,ross.searle@csiro.au,http://www.bom.gov.au,http://www.bom.gov.au,Latest 72 hours weather observations for each station (30 min intervals).,http://www.bom.gov.au/products
BoMLatest_95747_IDN60801,Murrurundi Gap,BoM,BoM_Latest,Public,NA,NA,-31.7416,150.7937,Bureau of Meteorology,ross.searle@csiro.au,http://www.bom.gov.au,http://www.bom.gov.au,Latest 72 hours weather observations for each station (30 min intervals).,http://www.bom.gov.au/products
BoMLatest_95779_IDN60801,Nelson Bay,BoM,BoM_Latest,Public,NA,NA,-32.7103,152.1612,Bureau of Meteorology,ross.searle@csiro.au,http://www.bom.gov.au,http://www.bom.gov.au,Latest 72 hours weather observations for each station (30 min intervals).,http://www.bom.gov.au/products
BoMLatest_94774_IDN60801,Newcastle Nobbys,BoM,BoM_Latest,Public,NA,NA,-32.9184,151.7985,Bureau of Meteorology,ross.searle@csiro.au,http://www.bom.gov.au,http://www.bom.gov.au,Latest 72 hours weather observations for each station (30 min intervals).,http://www.bom.gov.au/products
BoMLatest_94781_IDN60801,Newcastle University,BoM,BoM_Latest,Public,NA,NA,-32.8906,151.7068,Bureau of Meteorology,ross.searle@csiro.au,http://www.bom.gov.au,http://www.bom.gov.au,Latest 72 hours weather observations for each station (30 min intervals).,http://www.bom.gov.au/products
BoMLatest_95770_IDN60801,Norah Head,BoM,BoM_Latest,Public,NA,NA,-33.2814,151.5766,Bureau of Meteorology,ross.searle@csiro.au,http://www.bom.gov.au,http://www.bom.gov.au,Latest 72 hours weather observations for each station (30 min intervals).,http://www.bom.gov.au/products
BoMLatest_95758_IDN60801,Scone Airport,BoM,BoM_Latest,Public,NA,NA,-32.0335,150.8264,Bureau of Meteorology,ross.searle@csiro.au,http://www.bom.gov.au,http://www.bom.gov.au,Latest 72 hours weather observations for each station (30 min intervals).,http://www.bom.gov.au/products
BoMLatest_94775_IDN60801,Tocal,BoM,BoM_Latest,Public,NA,NA,-32.6296,151.5919,Bureau of Meteorology,ross.searle@csiro.au,http://www.bom.gov.au,http://www.bom.gov.au,Latest 72 hours weather observations for each station (30 min intervals).,http://www.bom.gov.au/products
BoMLatest_94776_IDN60801,Williamtown,BoM,BoM_Latest,Public,NA,NA,-32.7932,151.8359,Bureau of Meteorology,ross.searle@csiro.au,http://www.bom.gov.au,http://www.bom.gov.au,Latest 72 hours weather observations for each station (30 min intervals).,http://www.bom.gov.au/products
BoMLatest_94773_IDN60801,Armidale,BoM,BoM_Latest,Public,NA,NA,-30.5243,151.6716,Bureau of Meteorology,ross.searle@csiro.au,http://www.bom.gov.au,http://www.bom.gov.au,Latest 72 hours weather observations for each station (30 min intervals).,http://www.bom.gov.au/products
BoMLatest_95773_IDN60801,Armidale Airport,BoM,BoM_Latest,Public,NA,NA,-30.5273,151.6158,Bureau of Meteorology,ross.searle@csiro.au,http://www.bom.gov.au,http://www.bom.gov.au,Latest 72 hours weather observations for each station (30 min intervals).,http://www.bom.gov.au/products
BoMLatest_94588_IDN60801,Glen Innes Airport,BoM,BoM_Latest,Public,NA,NA,-29.678,151.694,Bureau of Meteorology,ross.searle@csiro.au,http://www.bom.gov.au,http://www.bom.gov.au,Latest 72 hours weather observations for each station (30 min intervals).,http://www.bom.gov.au/products
BoMLatest_94772_IDN60801,Guyra,BoM,BoM_Latest,Public,NA,NA,-30.2122,151.6794,Bureau of Meteorology,ross.searle@csiro.au,http://www.bom.gov.au,http://www.bom.gov.au,Latest 72 hours weather observations for each station (30 min intervals).,http://www.bom.gov.au/products
BoMLatest_95541_IDN60801,Inverell,BoM,BoM_Latest,Public,NA,NA,-29.7796,151.1121,Bureau of Meteorology,ross.searle@csiro.au,http://www.bom.gov.au,http://www.bom.gov.au,Latest 72 hours weather observations for each station (30 min intervals).,http://www.bom.gov.au/products
BoMLatest_94541_IDN60801,Inverell RS,BoM,BoM_Latest,Public,NA,NA,-29.7752,151.0819,Bureau of Meteorology,ross.searle@csiro.au,http://www.bom.gov.au,http://www.bom.gov.au,Latest 72 hours weather observations for each station (30 min intervals).,http://www.bom.gov.au/products
BoMLatest_94553_IDN60801,Applethorpe,BoM,BoM_Latest,Public,NA,NA,-28.6217,151.9533,Bureau of Meteorology,ross.searle@csiro.au,http://www.bom.gov.au,http://www.bom.gov.au,Latest 72 hours weather observations for each station (30 min intervals).,http://www.bom.gov.au/products
BoMLatest_94556_IDN60801,Tenterfield,BoM,BoM_Latest,Public,NA,NA,-29.0479,152.0172,Bureau of Meteorology,ross.searle@csiro.au,http://www.bom.gov.au,http://www.bom.gov.au,Latest 72 hours weather observations for each station (30 min intervals).,http://www.bom.gov.au/products
BoMLatest_94752_IDN60801,Badgerys Creek,BoM,BoM_Latest,Public,NA,NA,-33.8969,150.7281,Bureau of Meteorology,ross.searle@csiro.au,http://www.bom.gov.au,http://www.bom.gov.au,Latest 72 hours weather observations for each station (30 min intervals).,http://www.bom.gov.au/products
BoMLatest_94765_IDN60801,Bankstown,BoM,BoM_Latest,Public,NA,NA,-33.9181,150.9864,Bureau of Meteorology,ross.searle@csiro.au,http://www.bom.gov.au,http://www.bom.gov.au,Latest 72 hours weather observations for each station (30 min intervals).,http://www.bom.gov.au/products
BoMLatest_94755_IDN60801,Camden,BoM,BoM_Latest,Public,NA,NA,-34.039,150.689,Bureau of Meteorology,ross.searle@csiro.au,http://www.bom.gov.au,http://www.bom.gov.au,Latest 72 hours weather observations for each station (30 min intervals).,http://www.bom.gov.au/products
BoMLatest_94757_IDN60801,Campbelltown,BoM,BoM_Latest,Public,NA,NA,-34.0615,150.7735,Bureau of Meteorology,ross.searle@csiro.au,http://www.bom.gov.au,http://www.bom.gov.au,Latest 72 hours weather observations for each station (30 min intervals).,http://www.bom.gov.au/products
BoMLatest_94766_IDN60801,Canterbury,BoM,BoM_Latest,Public,NA,NA,-33.9057,151.1134,Bureau of Meteorology,ross.searle@csiro.au,http://www.bom.gov.au,http://www.bom.gov.au,Latest 72 hours weather observations for each station (30 min intervals).,http://www.bom.gov.au/products
BoMLatest_94769_IDN60801,Fort Denison,BoM,BoM_Latest,Public,NA,NA,-33.8551,151.2254,Bureau of Meteorology,ross.searle@csiro.au,http://www.bom.gov.au,http://www.bom.gov.au,Latest 72 hours weather observations for each station (30 min intervals).,http://www.bom.gov.au/products
BoMLatest_95761_IDN60801,Holsworthy,BoM,BoM_Latest,Public,NA,NA,-33.9925,150.9489,Bureau of Meteorology,ross.searle@csiro.au,http://www.bom.gov.au,http://www.bom.gov.au,Latest 72 hours weather observations for each station (30 min intervals).,http://www.bom.gov.au/products
BoMLatest_94760_IDN60801,Horsley Park,BoM,BoM_Latest,Public,NA,NA,-33.851,150.8567,Bureau of Meteorology,ross.searle@csiro.au,http://www.bom.gov.au,http://www.bom.gov.au,Latest 72 hours weather observations for each station (30 min intervals).,http://www.bom.gov.au/products
BoMLatest_95756_IDN60801,Kurnell,BoM,BoM_Latest,Public,NA,NA,-34.0039,151.2111,Bureau of Meteorology,ross.searle@csiro.au,http://www.bom.gov.au,http://www.bom.gov.au,Latest 72 hours weather observations for each station (30 min intervals).,http://www.bom.gov.au/products
BoMLatest_94780_IDN60801,Little Bay,BoM,BoM_Latest,Public,NA,NA,-33.9829,151.2502,Bureau of Meteorology,ross.searle@csiro.au,http://www.bom.gov.au,http://www.bom.gov.au,Latest 72 hours weather observations for each station (30 min intervals).,http://www.bom.gov.au/products
BoMLatest_95757_IDN60801,Lucas Heights (ANSTO),BoM,BoM_Latest,Public,NA,NA,-34.0519,150.9825,Bureau of Meteorology,ross.searle@csiro.au,http://www.bom.gov.au,http://www.bom.gov.au,Latest 72 hours weather observations for each station (30 min intervals).,http://www.bom.gov.au/products
BoMLatest_95768_IDN60801,North Head,BoM,BoM_Latest,Public,NA,NA,-33.8152,151.2986,Bureau of Meteorology,ross.searle@csiro.au,http://www.bom.gov.au,http://www.bom.gov.au,Latest 72 hours weather observations for each station (30 min intervals).,http://www.bom.gov.au/products
BoMLatest_94764_IDN60801,Parramatta,BoM,BoM_Latest,Public,NA,NA,-33.7917,151.0181,Bureau of Meteorology,ross.searle@csiro.au,http://www.bom.gov.au,http://www.bom.gov.au,Latest 72 hours weather observations for each station (30 min intervals).,http://www.bom.gov.au/products
BoMLatest_94763_IDN60801,Penrith,BoM,BoM_Latest,Public,NA,NA,-33.7195,150.6783,Bureau of Meteorology,ross.searle@csiro.au,http://www.bom.gov.au,http://www.bom.gov.au,Latest 72 hours weather observations for each station (30 min intervals).,http://www.bom.gov.au/products
BoMLatest_95753_IDN60801,Richmond,BoM,BoM_Latest,Public,NA,NA,-33.6004,150.7761,Bureau of Meteorology,ross.searle@csiro.au,http://www.bom.gov.au,http://www.bom.gov.au,Latest 72 hours weather observations for each station (30 min intervals).,http://www.bom.gov.au/products
BoMLatest_94767_IDN60801,Sydney Airport,BoM,BoM_Latest,Public,NA,NA,-33.9465,151.1731,Bureau of Meteorology,ross.searle@csiro.au,http://www.bom.gov.au,http://www.bom.gov.au,Latest 72 hours weather observations for each station (30 min intervals).,http://www.bom.gov.au/products
BoMLatest_94768_IDN60801,Sydney - Observatory Hill,BoM,BoM_Latest,Public,NA,NA,-33.8607,151.205,Bureau of Meteorology,ross.searle@csiro.au,http://www.bom.gov.au,http://www.bom.gov.au,Latest 72 hours weather observations for each station (30 min intervals).,http://www.bom.gov.au/products
BoMLatest_95766_IDN60801,Sydney Harbour,BoM,BoM_Latest,Public,NA,NA,-33.8405,151.2643,Bureau of Meteorology,ross.searle@csiro.au,http://www.bom.gov.au,http://www.bom.gov.au,Latest 72 hours weather observations for each station (30 min intervals).,http://www.bom.gov.au/products
BoMLatest_95765_IDN60801,Sydney Olympic Park,BoM,BoM_Latest,Public,NA,NA,-33.8338,151.0718,Bureau of Meteorology,ross.searle@csiro.au,http://www.bom.gov.au,http://www.bom.gov.au,Latest 72 hours weather observations for each station (30 min intervals).,http://www.bom.gov.au/products
BoMLatest_94759_IDN60801,Terrey Hills,BoM,BoM_Latest,Public,NA,NA,-33.6908,151.2253,Bureau of Meteorology,ross.searle@csiro.au,http://www.bom.gov.au,http://www.bom.gov.au,Latest 72 hours weather observations for each station (30 min intervals).,http://www.bom.gov.au/products
BoMLatest_95752_IDN60801,Wattamolla,BoM,BoM_Latest,Public,NA,NA,-34.1407,151.1185,Bureau of Meteorology,ross.searle@csiro.au,http://www.bom.gov.au,http://www.bom.gov.au,Latest 72 hours weather observations for each station (30 min intervals).,http://www.bom.gov.au/products
BoMLatest_95748_IDN60801,Albion Park,BoM,BoM_Latest,Public,NA,NA,-34.5638,150.79,Bureau of Meteorology,ross.searle@csiro.au,http://www.bom.gov.au,http://www.bom.gov.au,Latest 72 hours weather observations for each station (30 min intervals).,http://www.bom.gov.au/products
BoMLatest_94749_IDN60801,Bellambi,BoM,BoM_Latest,Public,NA,NA,-34.3691,150.9291,Bureau of Meteorology,ross.searle@csiro.au,http://www.bom.gov.au,http://www.bom.gov.au,Latest 72 hours weather observations for each station (30 min intervals).,http://www.bom.gov.au/products
BoMLatest_99742_IDN60801,High Range (Wanganderry),BoM,BoM_Latest,Public,NA,NA,-34.3335,150.267,Bureau of Meteorology,ross.searle@csiro.au,http://www.bom.gov.au,http://www.bom.gov.au,Latest 72 hours weather observations for each station (30 min intervals).,http://www.bom.gov.au/products
BoMLatest_95749_IDN60801,Kiama,BoM,BoM_Latest,Public,NA,NA,-34.6532,150.8609,Bureau of Meteorology,ross.searle@csiro.au,http://www.bom.gov.au,http://www.bom.gov.au,Latest 72 hours weather observations for each station (30 min intervals).,http://www.bom.gov.au/products
BoMLatest_94746_IDN60801,Moss Vale,BoM,BoM_Latest,Public,NA,NA,-34.5253,150.4217,Bureau of Meteorology,ross.searle@csiro.au,http://www.bom.gov.au,http://www.bom.gov.au,Latest 72 hours weather observations for each station (30 min intervals).,http://www.bom.gov.au/products
BoMLatest_94750_IDN60801,Nowra,BoM,BoM_Latest,Public,NA,NA,-34.9469,150.5353,Bureau of Meteorology,ross.searle@csiro.au,http://www.bom.gov.au,http://www.bom.gov.au,Latest 72 hours weather observations for each station (30 min intervals).,http://www.bom.gov.au/products
BoMLatest_95940_IDN60801,Point Perpendicular,BoM,BoM_Latest,Public,NA,NA,-35.0936,150.8049,Bureau of Meteorology,ross.searle@csiro.au,http://www.bom.gov.au,http://www.bom.gov.au,Latest 72 hours weather observations for each station (30 min intervals).,http://www.bom.gov.au/products
BoMLatest_95745_IDN60801,Port Kembla Harbour,BoM,BoM_Latest,Public,NA,NA,-34.4734,150.9118,Bureau of Meteorology,ross.searle@csiro.au,http://www.bom.gov.au,http://www.bom.gov.au,Latest 72 hours weather observations for each station (30 min intervals).,http://www.bom.gov.au/products
BoMLatest_95931_IDN60801,Bega,BoM,BoM_Latest,Public,NA,NA,-36.6722,149.8191,Bureau of Meteorology,ross.searle@csiro.au,http://www.bom.gov.au,http://www.bom.gov.au,Latest 72 hours weather observations for each station (30 min intervals).,http://www.bom.gov.au/products
BoMLatest_94933_IDN60801,Gabo Island,BoM,BoM_Latest,Public,NA,NA,-37.5679,149.9158,Bureau of Meteorology,ross.searle@csiro.au,http://www.bom.gov.au,http://www.bom.gov.au,Latest 72 hours weather observations for each station (30 min intervals).,http://www.bom.gov.au/products
BoMLatest_94934_IDN60801,Green Cape,BoM,BoM_Latest,Public,NA,NA,-37.2622,150.0504,Bureau of Meteorology,ross.searle@csiro.au,http://www.bom.gov.au,http://www.bom.gov.au,Latest 72 hours weather observations for each station (30 min intervals).,http://www.bom.gov.au/products
BoMLatest_95929_IDN60801,Merimbula,BoM,BoM_Latest,Public,NA,NA,-36.9077,149.8989,Bureau of Meteorology,ross.searle@csiro.au,http://www.bom.gov.au,http://www.bom.gov.au,Latest 72 hours weather observations for each station (30 min intervals).,http://www.bom.gov.au/products
BoMLatest_94939_IDN60801,Montague Island,BoM,BoM_Latest,Public,NA,NA,-36.2519,150.2275,Bureau of Meteorology,ross.searle@csiro.au,http://www.bom.gov.au,http://www.bom.gov.au,Latest 72 hours weather observations for each station (30 min intervals).,http://www.bom.gov.au/products
BoMLatest_95937_IDN60801,Moruya Airport,BoM,BoM_Latest,Public,NA,NA,-35.9004,150.1437,Bureau of Meteorology,ross.searle@csiro.au,http://www.bom.gov.au,http://www.bom.gov.au,Latest 72 hours weather observations for each station (30 min intervals).,http://www.bom.gov.au/products
BoMLatest_94937_IDN60801,Moruya Heads,BoM,BoM_Latest,Public,NA,NA,-35.9093,150.1532,Bureau of Meteorology,ross.searle@csiro.au,http://www.bom.gov.au,http://www.bom.gov.au,Latest 72 hours weather observations for each station (30 min intervals).,http://www.bom.gov.au/products
BoMLatest_95935_IDN60801,Narooma,BoM,BoM_Latest,Public,NA,NA,-36.2144,150.1358,Bureau of Meteorology,ross.searle@csiro.au,http://www.bom.gov.au,http://www.bom.gov.au,Latest 72 hours weather observations for each station (30 min intervals).,http://www.bom.gov.au/products
BoMLatest_94938_IDN60801,Ulladulla,BoM,BoM_Latest,Public,NA,NA,-35.3635,150.4828,Bureau of Meteorology,ross.searle@csiro.au,http://www.bom.gov.au,http://www.bom.gov.au,Latest 72 hours weather observations for each station (30 min intervals).,http://www.bom.gov.au/products
BoMLatest_94730_IDN60801,Bathurst,BoM,BoM_Latest,Public,NA,NA,-33.4289,149.5559,Bureau of Meteorology,ross.searle@csiro.au,http://www.bom.gov.au,http://www.bom.gov.au,Latest 72 hours weather observations for each station (30 min intervals).,http://www.bom.gov.au/products
BoMLatest_94729_IDN60801,Bathurst Airport,BoM,BoM_Latest,Public,NA,NA,-33.4119,149.654,Bureau of Meteorology,ross.searle@csiro.au,http://www.bom.gov.au,http://www.bom.gov.au,Latest 72 hours weather observations for each station (30 min intervals).,http://www.bom.gov.au/products
BoMLatest_94732_IDN60801,Gulgong,BoM,BoM_Latest,Public,NA,NA,-32.3634,149.5329,Bureau of Meteorology,ross.searle@csiro.au,http://www.bom.gov.au,http://www.bom.gov.au,Latest 72 hours weather observations for each station (30 min intervals).,http://www.bom.gov.au/products
BoMLatest_94741_IDN60801,Lithgow,BoM,BoM_Latest,Public,NA,NA,-33.4769,150.1303,Bureau of Meteorology,ross.searle@csiro.au,http://www.bom.gov.au,http://www.bom.gov.au,Latest 72 hours weather observations for each station (30 min intervals).,http://www.bom.gov.au/products
BoMLatest_94743_IDN60801,Mount Boyce,BoM,BoM_Latest,Public,NA,NA,-33.6185,150.2741,Bureau of Meteorology,ross.searle@csiro.au,http://www.bom.gov.au,http://www.bom.gov.au,Latest 72 hours weather observations for each station (30 min intervals).,http://www.bom.gov.au/products
BoMLatest_94727_IDN60801,Mudgee,BoM,BoM_Latest,Public,NA,NA,-32.5628,149.6149,Bureau of Meteorology,ross.searle@csiro.au,http://www.bom.gov.au,http://www.bom.gov.au,Latest 72 hours weather observations for each station (30 min intervals).,http://www.bom.gov.au/products
BoMLatest_94754_IDN60801,Nullo Mountain,BoM,BoM_Latest,Public,NA,NA,-32.7244,150.229,Bureau of Meteorology,ross.searle@csiro.au,http://www.bom.gov.au,http://www.bom.gov.au,Latest 72 hours weather observations for each station (30 min intervals).,http://www.bom.gov.au/products
BoMLatest_95735_IDN60801,Oberon,BoM,BoM_Latest,Public,NA,NA,-33.6682,149.8348,Bureau of Meteorology,ross.searle@csiro.au,http://www.bom.gov.au,http://www.bom.gov.au,Latest 72 hours weather observations for each station (30 min intervals).,http://www.bom.gov.au/products
BoMLatest_95725_IDN60801,Orange AgIn,BoM,BoM_Latest,Public,NA,NA,-33.3211,149.0828,Bureau of Meteorology,ross.searle@csiro.au,http://www.bom.gov.au,http://www.bom.gov.au,Latest 72 hours weather observations for each station (30 min intervals).,http://www.bom.gov.au/products
BoMLatest_95726_IDN60801,Orange Airport,BoM,BoM_Latest,Public,NA,NA,-33.3768,149.1263,Bureau of Meteorology,ross.searle@csiro.au,http://www.bom.gov.au,http://www.bom.gov.au,Latest 72 hours weather observations for each station (30 min intervals).,http://www.bom.gov.au/products
BoMLatest_95744_IDN60801,Springwood,BoM,BoM_Latest,Public,NA,NA,-33.7065,150.5848,Bureau of Meteorology,ross.searle@csiro.au,http://www.bom.gov.au,http://www.bom.gov.au,Latest 72 hours weather observations for each station (30 min intervals).,http://www.bom.gov.au/products
BoMLatest_94927_IDN60801,Braidwood,BoM,BoM_Latest,Public,NA,NA,-35.4253,149.7835,Bureau of Meteorology,ross.searle@csiro.au,http://www.bom.gov.au,http://www.bom.gov.au,Latest 72 hours weather observations for each station (30 min intervals).,http://www.bom.gov.au/products
BoMLatest_94909_IDN60801,Burrinjuck Dam,BoM,BoM_Latest,Public,NA,NA,-34.9997,148.5984,Bureau of Meteorology,ross.searle@csiro.au,http://www.bom.gov.au,http://www.bom.gov.au,Latest 72 hours weather observations for each station (30 min intervals).,http://www.bom.gov.au/products
BoMLatest_94926_IDN60801,Canberra,BoM,BoM_Latest,Public,NA,NA,-35.3088,149.2004,Bureau of Meteorology,ross.searle@csiro.au,http://www.bom.gov.au,http://www.bom.gov.au,Latest 72 hours weather observations for each station (30 min intervals).,http://www.bom.gov.au/products
BoMLatest_94716_IDN60801,Goulburn,BoM,BoM_Latest,Public,NA,NA,-34.7495,149.7034,Bureau of Meteorology,ross.searle@csiro.au,http://www.bom.gov.au,http://www.bom.gov.au,Latest 72 hours weather observations for each station (30 min intervals).,http://www.bom.gov.au/products
BoMLatest_95716_IDN60801,Goulburn Airport,BoM,BoM_Latest,Public,NA,NA,-34.8085,149.7311,Bureau of Meteorology,ross.searle@csiro.au,http://www.bom.gov.au,http://www.bom.gov.au,Latest 72 hours weather observations for each station (30 min intervals).,http://www.bom.gov.au/products
BoMLatest_95925_IDN60801,Mount Ginini,BoM,BoM_Latest,Public,NA,NA,-35.5293,148.7721,Bureau of Meteorology,ross.searle@csiro.au,http://www.bom.gov.au,http://www.bom.gov.au,Latest 72 hours weather observations for each station (30 min intervals).,http://www.bom.gov.au/products
BoMLatest_94943_IDN60801,Nerriga,BoM,BoM_Latest,Public,NA,NA,-35.1103,150.0826,Bureau of Meteorology,ross.searle@csiro.au,http://www.bom.gov.au,http://www.bom.gov.au,Latest 72 hours weather observations for each station (30 min intervals).,http://www.bom.gov.au/products
BoMLatest_94735_IDN60801,Taralga,BoM,BoM_Latest,Public,NA,NA,-34.4048,149.8197,Bureau of Meteorology,ross.searle@csiro.au,http://www.bom.gov.au,http://www.bom.gov.au,Latest 72 hours weather observations for each station (30 min intervals).,http://www.bom.gov.au/products
BoMLatest_94925_IDN60801,Tuggeranong,BoM,BoM_Latest,Public,NA,NA,-35.4184,149.0937,Bureau of Meteorology,ross.searle@csiro.au,http://www.bom.gov.au,http://www.bom.gov.au,Latest 72 hours weather observations for each station (30 min intervals).,http://www.bom.gov.au/products
BoMLatest_94928_IDN60801,Bombala,BoM,BoM_Latest,Public,NA,NA,-36.9113,149.2379,Bureau of Meteorology,ross.searle@csiro.au,http://www.bom.gov.au,http://www.bom.gov.au,Latest 72 hours weather observations for each station (30 min intervals).,http://www.bom.gov.au/products
BoMLatest_94929_IDN60801,Bombala AWS,BoM,BoM_Latest,Public,NA,NA,-37.0016,149.2336,Bureau of Meteorology,ross.searle@csiro.au,http://www.bom.gov.au,http://www.bom.gov.au,Latest 72 hours weather observations for each station (30 min intervals).,http://www.bom.gov.au/products
BoMLatest_95916_IDN60801,Cabramurra,BoM,BoM_Latest,Public,NA,NA,-35.9371,148.3779,Bureau of Meteorology,ross.searle@csiro.au,http://www.bom.gov.au,http://www.bom.gov.au,Latest 72 hours weather observations for each station (30 min intervals).,http://www.bom.gov.au/products
BoMLatest_94923_IDN60801,Cooma,BoM,BoM_Latest,Public,NA,NA,-36.2318,149.1243,Bureau of Meteorology,ross.searle@csiro.au,http://www.bom.gov.au,http://www.bom.gov.au,Latest 72 hours weather observations for each station (30 min intervals).,http://www.bom.gov.au/products
BoMLatest_94921_IDN60801,Cooma Airport,BoM,BoM_Latest,Public,NA,NA,-36.2939,148.9725,Bureau of Meteorology,ross.searle@csiro.au,http://www.bom.gov.au,http://www.bom.gov.au,Latest 72 hours weather observations for each station (30 min intervals).,http://www.bom.gov.au/products
BoMLatest_94915_IDN60801,Perisher Valley,BoM,BoM_Latest,Public,NA,NA,-36.4069,148.4055,Bureau of Meteorology,ross.searle@csiro.au,http://www.bom.gov.au,http://www.bom.gov.au,Latest 72 hours weather observations for each station (30 min intervals).,http://www.bom.gov.au/products
BoMLatest_95909_IDN60801,Thredbo Top Station,BoM,BoM_Latest,Public,NA,NA,-36.4917,148.2859,Bureau of Meteorology,ross.searle@csiro.au,http://www.bom.gov.au,http://www.bom.gov.au,Latest 72 hours weather observations for each station (30 min intervals).,http://www.bom.gov.au/products
BoMLatest_95908_IDN60801,Thredbo Village,BoM,BoM_Latest,Public,NA,NA,-36.5031,148.3038,Bureau of Meteorology,ross.searle@csiro.au,http://www.bom.gov.au,http://www.bom.gov.au,Latest 72 hours weather observations for each station (30 min intervals).,http://www.bom.gov.au/products
BoMLatest_94761_IDN60801,Barraba,BoM,BoM_Latest,Public,NA,NA,-30.3781,150.6096,Bureau of Meteorology,ross.searle@csiro.au,http://www.bom.gov.au,http://www.bom.gov.au,Latest 72 hours weather observations for each station (30 min intervals).,http://www.bom.gov.au/products
BoMLatest_95740_IDN60801,Gunnedah Airport,BoM,BoM_Latest,Public,NA,NA,-30.9537,150.2494,Bureau of Meteorology,ross.searle@csiro.au,http://www.bom.gov.au,http://www.bom.gov.au,Latest 72 hours weather observations for each station (30 min intervals).,http://www.bom.gov.au/products
BoMLatest_95527_IDN60801,Moree,BoM,BoM_Latest,Public,NA,NA,-29.4898,149.8471,Bureau of Meteorology,ross.searle@csiro.au,http://www.bom.gov.au,http://www.bom.gov.au,Latest 72 hours weather observations for each station (30 min intervals).,http://www.bom.gov.au/products
BoMLatest_94520_IDN60801,Mungindi,BoM,BoM_Latest,Public,NA,NA,-28.9786,148.9899,Bureau of Meteorology,ross.searle@csiro.au,http://www.bom.gov.au,http://www.bom.gov.au,Latest 72 hours weather observations for each station (30 min intervals).,http://www.bom.gov.au/products
BoMLatest_95734_IDN60801,Narrabri,BoM,BoM_Latest,Public,NA,NA,-30.3154,149.8302,Bureau of Meteorology,ross.searle@csiro.au,http://www.bom.gov.au,http://www.bom.gov.au,Latest 72 hours weather observations for each station (30 min intervals).,http://www.bom.gov.au/products
BoMLatest_94544_IDN60801,Pindari Dam,BoM,BoM_Latest,Public,NA,NA,-29.3899,151.2448,Bureau of Meteorology,ross.searle@csiro.au,http://www.bom.gov.au,http://www.bom.gov.au,Latest 72 hours weather observations for each station (30 min intervals).,http://www.bom.gov.au/products
BoMLatest_95746_IDN60801,Quirindi,BoM,BoM_Latest,Public,NA,NA,-31.5086,150.6792,Bureau of Meteorology,ross.searle@csiro.au,http://www.bom.gov.au,http://www.bom.gov.au,Latest 72 hours weather observations for each station (30 min intervals).,http://www.bom.gov.au/products
BoMLatest_95762_IDN60801,Tamworth Airport,BoM,BoM_Latest,Public,NA,NA,-31.0742,150.8362,Bureau of Meteorology,ross.searle@csiro.au,http://www.bom.gov.au,http://www.bom.gov.au,Latest 72 hours weather observations for each station (30 min intervals).,http://www.bom.gov.au/products
BoMLatest_95715_IDN60801,Walgett,BoM,BoM_Latest,Public,NA,NA,-30.0372,148.1223,Bureau of Meteorology,ross.searle@csiro.au,http://www.bom.gov.au,http://www.bom.gov.au,Latest 72 hours weather observations for each station (30 min intervals).,http://www.bom.gov.au/products
BoMLatest_94792_IDN60801,Woolbrook,BoM,BoM_Latest,Public,NA,NA,-30.9672,151.3451,Bureau of Meteorology,ross.searle@csiro.au,http://www.bom.gov.au,http://www.bom.gov.au,Latest 72 hours weather observations for each station (30 min intervals).,http://www.bom.gov.au/products
BoMLatest_95708_IDN60801,Condobolin Airport,BoM,BoM_Latest,Public,NA,NA,-33.0682,147.2133,Bureau of Meteorology,ross.searle@csiro.au,http://www.bom.gov.au,http://www.bom.gov.au,Latest 72 hours weather observations for each station (30 min intervals).,http://www.bom.gov.au/products
BoMLatest_94728_IDN60801,Coonabarabran,BoM,BoM_Latest,Public,NA,NA,-31.2712,149.2714,Bureau of Meteorology,ross.searle@csiro.au,http://www.bom.gov.au,http://www.bom.gov.au,Latest 72 hours weather observations for each station (30 min intervals).,http://www.bom.gov.au/products
BoMLatest_95728_IDN60801,Coonabarabran Airport,BoM,BoM_Latest,Public,NA,NA,-31.333,149.2699,Bureau of Meteorology,ross.searle@csiro.au,http://www.bom.gov.au,http://www.bom.gov.au,Latest 72 hours weather observations for each station (30 min intervals).,http://www.bom.gov.au/products
BoMLatest_95718_IDN60801,Coonamble,BoM,BoM_Latest,Public,NA,NA,-30.9776,148.3798,Bureau of Meteorology,ross.searle@csiro.au,http://www.bom.gov.au,http://www.bom.gov.au,Latest 72 hours weather observations for each station (30 min intervals).,http://www.bom.gov.au/products
BoMLatest_95721_IDN60801,Cowra,BoM,BoM_Latest,Public,NA,NA,-33.8449,148.6497,Bureau of Meteorology,ross.searle@csiro.au,http://www.bom.gov.au,http://www.bom.gov.au,Latest 72 hours weather observations for each station (30 min intervals).,http://www.bom.gov.au/products
BoMLatest_95719_IDN60801,Dubbo,BoM,BoM_Latest,Public,NA,NA,-32.2206,148.5753,Bureau of Meteorology,ross.searle@csiro.au,http://www.bom.gov.au,http://www.bom.gov.au,Latest 72 hours weather observations for each station (30 min intervals).,http://www.bom.gov.au/products
BoMLatest_95727_IDN60801,Dunedoo,BoM,BoM_Latest,Public,NA,NA,-32.0165,149.3956,Bureau of Meteorology,ross.searle@csiro.au,http://www.bom.gov.au,http://www.bom.gov.au,Latest 72 hours weather observations for each station (30 min intervals).,http://www.bom.gov.au/products
BoMLatest_94715_IDN60801,Forbes,BoM,BoM_Latest,Public,NA,NA,-33.3627,147.9205,Bureau of Meteorology,ross.searle@csiro.au,http://www.bom.gov.au,http://www.bom.gov.au,Latest 72 hours weather observations for each station (30 min intervals).,http://www.bom.gov.au/products
BoMLatest_94725_IDN60801,Grenfell,BoM,BoM_Latest,Public,NA,NA,-33.8934,148.1523,Bureau of Meteorology,ross.searle@csiro.au,http://www.bom.gov.au,http://www.bom.gov.au,Latest 72 hours weather observations for each station (30 min intervals).,http://www.bom.gov.au/products
BoMLatest_95707_IDN60801,Lake Cargelligo,BoM,BoM_Latest,Public,NA,NA,-33.2832,146.3706,Bureau of Meteorology,ross.searle@csiro.au,http://www.bom.gov.au,http://www.bom.gov.au,Latest 72 hours weather observations for each station (30 min intervals).,http://www.bom.gov.au/products
BoMLatest_94708_IDN60801,Nyngan,BoM,BoM_Latest,Public,NA,NA,-31.5495,147.1961,Bureau of Meteorology,ross.searle@csiro.au,http://www.bom.gov.au,http://www.bom.gov.au,Latest 72 hours weather observations for each station (30 min intervals).,http://www.bom.gov.au/products
BoMLatest_95717_IDN60801,Parkes Airport,BoM,BoM_Latest,Public,NA,NA,-33.1281,148.2428,Bureau of Meteorology,ross.searle@csiro.au,http://www.bom.gov.au,http://www.bom.gov.au,Latest 72 hours weather observations for each station (30 min intervals).,http://www.bom.gov.au/products
BoMLatest_94721_IDN60801,Peak Hill,BoM,BoM_Latest,Public,NA,NA,-32.7235,148.1902,Bureau of Meteorology,ross.searle@csiro.au,http://www.bom.gov.au,http://www.bom.gov.au,Latest 72 hours weather observations for each station (30 min intervals).,http://www.bom.gov.au/products
BoMLatest_95722_IDN60801,Temora,BoM,BoM_Latest,Public,NA,NA,-34.4277,147.5117,Bureau of Meteorology,ross.searle@csiro.au,http://www.bom.gov.au,http://www.bom.gov.au,Latest 72 hours weather observations for each station (30 min intervals).,http://www.bom.gov.au/products
BoMLatest_95710_IDN60801,Trangie,BoM,BoM_Latest,Public,NA,NA,-31.9861,147.9489,Bureau of Meteorology,ross.searle@csiro.au,http://www.bom.gov.au,http://www.bom.gov.au,Latest 72 hours weather observations for each station (30 min intervals).,http://www.bom.gov.au/products
BoMLatest_95709_IDN60801,West Wyalong,BoM,BoM_Latest,Public,NA,NA,-33.9382,147.1962,Bureau of Meteorology,ross.searle@csiro.au,http://www.bom.gov.au,http://www.bom.gov.au,Latest 72 hours weather observations for each station (30 min intervals).,http://www.bom.gov.au/products
BoMLatest_94714_IDN60801,Cootamundra,BoM,BoM_Latest,Public,NA,NA,-34.6299,148.0364,Bureau of Meteorology,ross.searle@csiro.au,http://www.bom.gov.au,http://www.bom.gov.au,Latest 72 hours weather observations for each station (30 min intervals).,http://www.bom.gov.au/products
BoMLatest_94890_IDN60801,Gundagai,BoM,BoM_Latest,Public,NA,NA,-35.064,148.0986,Bureau of Meteorology,ross.searle@csiro.au,http://www.bom.gov.au,http://www.bom.gov.au,Latest 72 hours weather observations for each station (30 min intervals).,http://www.bom.gov.au/products
BoMLatest_94919_IDN60801,Khancoban,BoM,BoM_Latest,Public,NA,NA,-36.2304,148.1405,Bureau of Meteorology,ross.searle@csiro.au,http://www.bom.gov.au,http://www.bom.gov.au,Latest 72 hours weather observations for each station (30 min intervals).,http://www.bom.gov.au/products
BoMLatest_94918_IDN60801,Tumbarumba,BoM,BoM_Latest,Public,NA,NA,-35.778,148.0122,Bureau of Meteorology,ross.searle@csiro.au,http://www.bom.gov.au,http://www.bom.gov.au,Latest 72 hours weather observations for each station (30 min intervals).,http://www.bom.gov.au/products
BoMLatest_94712_IDN60801,Young,BoM,BoM_Latest,Public,NA,NA,-34.2493,148.2475,Bureau of Meteorology,ross.searle@csiro.au,http://www.bom.gov.au,http://www.bom.gov.au,Latest 72 hours weather observations for each station (30 min intervals).,http://www.bom.gov.au/products
BoMLatest_95896_IDN60801,Albury,BoM,BoM_Latest,Public,NA,NA,-36.069,146.9509,Bureau of Meteorology,ross.searle@csiro.au,http://www.bom.gov.au,http://www.bom.gov.au,Latest 72 hours weather observations for each station (30 min intervals).,http://www.bom.gov.au/products
BoMLatest_95869_IDN60801,Deniliquin,BoM,BoM_Latest,Public,NA,NA,-35.5575,144.9458,Bureau of Meteorology,ross.searle@csiro.au,http://www.bom.gov.au,http://www.bom.gov.au,Latest 72 hours weather observations for each station (30 min intervals).,http://www.bom.gov.au/products
BoMLatest_95704_IDN60801,Griffith,BoM,BoM_Latest,Public,NA,NA,-34.2487,146.0695,Bureau of Meteorology,ross.searle@csiro.au,http://www.bom.gov.au,http://www.bom.gov.au,Latest 72 hours weather observations for each station (30 min intervals).,http://www.bom.gov.au/products
BoMLatest_94702_IDN60801,Hay Airport,BoM,BoM_Latest,Public,NA,NA,-34.5412,144.8345,Bureau of Meteorology,ross.searle@csiro.au,http://www.bom.gov.au,http://www.bom.gov.au,Latest 72 hours weather observations for each station (30 min intervals).,http://www.bom.gov.au/products
BoMLatest_94700_IDN60801,Hillston,BoM,BoM_Latest,Public,NA,NA,-33.4915,145.5248,Bureau of Meteorology,ross.searle@csiro.au,http://www.bom.gov.au,http://www.bom.gov.au,Latest 72 hours weather observations for each station (30 min intervals).,http://www.bom.gov.au/products
BoMLatest_94901_IDN60801,Hume Reservoir,BoM,BoM_Latest,Public,NA,NA,-36.1039,147.0329,Bureau of Meteorology,ross.searle@csiro.au,http://www.bom.gov.au,http://www.bom.gov.au,Latest 72 hours weather observations for each station (30 min intervals).,http://www.bom.gov.au/products
BoMLatest_95706_IDN60801,Narrandera Airport,BoM,BoM_Latest,Public,NA,NA,-34.705,146.514,Bureau of Meteorology,ross.searle@csiro.au,http://www.bom.gov.au,http://www.bom.gov.au,Latest 72 hours weather observations for each station (30 min intervals).,http://www.bom.gov.au/products
BoMLatest_94843_IDN60801,Swan Hill,BoM,BoM_Latest,Public,NA,NA,-35.3766,143.5416,Bureau of Meteorology,ross.searle@csiro.au,http://www.bom.gov.au,http://www.bom.gov.au,Latest 72 hours weather observations for each station (30 min intervals).,http://www.bom.gov.au/products
BoMLatest_94877_IDN60801,Tocumwal,BoM,BoM_Latest,Public,NA,NA,-35.817,145.6004,Bureau of Meteorology,ross.searle@csiro.au,http://www.bom.gov.au,http://www.bom.gov.au,Latest 72 hours weather observations for each station (30 min intervals).,http://www.bom.gov.au/products
BoMLatest_94910_IDN60801,Wagga Wagga,BoM,BoM_Latest,Public,NA,NA,-35.1583,147.4575,Bureau of Meteorology,ross.searle@csiro.au,http://www.bom.gov.au,http://www.bom.gov.au,Latest 72 hours weather observations for each station (30 min intervals).,http://www.bom.gov.au/products
BoMLatest_95705_IDN60801,Yanco,BoM,BoM_Latest,Public,NA,NA,-34.6222,146.4326,Bureau of Meteorology,ross.searle@csiro.au,http://www.bom.gov.au,http://www.bom.gov.au,Latest 72 hours weather observations for each station (30 min intervals).,http://www.bom.gov.au/products
BoMLatest_94862_IDN60801,Yarrawonga,BoM,BoM_Latest,Public,NA,NA,-36.0294,146.0306,Bureau of Meteorology,ross.searle@csiro.au,http://www.bom.gov.au,http://www.bom.gov.au,Latest 72 hours weather observations for each station (30 min intervals).,http://www.bom.gov.au/products
BoMLatest_94696_IDN60801,Balranald,BoM,BoM_Latest,Public,NA,NA,-34.6398,143.561,Bureau of Meteorology,ross.searle@csiro.au,http://www.bom.gov.au,http://www.bom.gov.au,Latest 72 hours weather observations for each station (30 min intervals).,http://www.bom.gov.au/products
BoMLatest_94691_IDN60801,Broken Hill Airport,BoM,BoM_Latest,Public,NA,NA,-32.0012,141.4694,Bureau of Meteorology,ross.searle@csiro.au,http://www.bom.gov.au,http://www.bom.gov.au,Latest 72 hours weather observations for each station (30 min intervals).,http://www.bom.gov.au/products
BoMLatest_95697_IDN60801,Ivanhoe Airport,BoM,BoM_Latest,Public,NA,NA,-32.8833,144.3092,Bureau of Meteorology,ross.searle@csiro.au,http://www.bom.gov.au,http://www.bom.gov.au,Latest 72 hours weather observations for each station (30 min intervals).,http://www.bom.gov.au/products
BoMLatest_94692_IDN60801,Lake Victoria,BoM,BoM_Latest,Public,NA,NA,-34.0438,141.2676,Bureau of Meteorology,ross.searle@csiro.au,http://www.bom.gov.au,http://www.bom.gov.au,Latest 72 hours weather observations for each station (30 min intervals).,http://www.bom.gov.au/products
BoMLatest_94694_IDN60801,Menindee,BoM,BoM_Latest,Public,NA,NA,-32.3937,142.4173,Bureau of Meteorology,ross.searle@csiro.au,http://www.bom.gov.au,http://www.bom.gov.au,Latest 72 hours weather observations for each station (30 min intervals).,http://www.bom.gov.au/products
BoMLatest_94693_IDN60801,Mildura,BoM,BoM_Latest,Public,NA,NA,-34.2358,142.0867,Bureau of Meteorology,ross.searle@csiro.au,http://www.bom.gov.au,http://www.bom.gov.au,Latest 72 hours weather observations for each station (30 min intervals).,http://www.bom.gov.au/products
BoMLatest_95692_IDN60801,Pooncarie,BoM,BoM_Latest,Public,NA,NA,-33.3856,142.5696,Bureau of Meteorology,ross.searle@csiro.au,http://www.bom.gov.au,http://www.bom.gov.au,Latest 72 hours weather observations for each station (30 min intervals).,http://www.bom.gov.au/products
BoMLatest_94703_IDN60801,Bourke,BoM,BoM_Latest,Public,NA,NA,-30.0362,145.9521,Bureau of Meteorology,ross.searle@csiro.au,http://www.bom.gov.au,http://www.bom.gov.au,Latest 72 hours weather observations for each station (30 min intervals).,http://www.bom.gov.au/products
BoMLatest_95512_IDN60801,Brewarrina,BoM,BoM_Latest,Public,NA,NA,-29.9614,146.8651,Bureau of Meteorology,ross.searle@csiro.au,http://www.bom.gov.au,http://www.bom.gov.au,Latest 72 hours weather observations for each station (30 min intervals).,http://www.bom.gov.au/products
BoMLatest_94711_IDN60801,Cobar,BoM,BoM_Latest,Public,NA,NA,-31.484,145.8294,Bureau of Meteorology,ross.searle@csiro.au,http://www.bom.gov.au,http://www.bom.gov.au,Latest 72 hours weather observations for each station (30 min intervals).,http://www.bom.gov.au/products
BoMLatest_94710_IDN60801,Cobar Airport,BoM,BoM_Latest,Public,NA,NA,-31.5388,145.7964,Bureau of Meteorology,ross.searle@csiro.au,http://www.bom.gov.au,http://www.bom.gov.au,Latest 72 hours weather observations for each station (30 min intervals).,http://www.bom.gov.au/products
BoMLatest_94686_IDN60801,Fowlers Gap,BoM,BoM_Latest,Public,NA,NA,-31.0863,141.7008,Bureau of Meteorology,ross.searle@csiro.au,http://www.bom.gov.au,http://www.bom.gov.au,Latest 72 hours weather observations for each station (30 min intervals).,http://www.bom.gov.au/products
BoMLatest_94498_IDN60801,Lightning Ridge,BoM,BoM_Latest,Public,NA,NA,-29.431,147.9722,Bureau of Meteorology,ross.searle@csiro.au,http://www.bom.gov.au,http://www.bom.gov.au,Latest 72 hours weather observations for each station (30 min intervals).,http://www.bom.gov.au/products
BoMLatest_95485_IDN60801,Tibooburra Airport,BoM,BoM_Latest,Public,NA,NA,-29.4448,142.0567,Bureau of Meteorology,ross.searle@csiro.au,http://www.bom.gov.au,http://www.bom.gov.au,Latest 72 hours weather observations for each station (30 min intervals).,http://www.bom.gov.au/products
BoMLatest_94497_IDN60801,Wanaaring,BoM,BoM_Latest,Public,NA,NA,-29.7029,144.1484,Bureau of Meteorology,ross.searle@csiro.au,http://www.bom.gov.au,http://www.bom.gov.au,Latest 72 hours weather observations for each station (30 min intervals).,http://www.bom.gov.au/products
BoMLatest_95699_IDN60801,White Cliffs AWS,BoM,BoM_Latest,Public,NA,NA,-30.8522,143.0743,Bureau of Meteorology,ross.searle@csiro.au,http://www.bom.gov.au,http://www.bom.gov.au,Latest 72 hours weather observations for each station (30 min intervals).,http://www.bom.gov.au/products
BoMLatest_95695_IDN60801,Wilcannia Airport,BoM,BoM_Latest,Public,NA,NA,-31.5194,143.385,Bureau of Meteorology,ross.searle@csiro.au,http://www.bom.gov.au,http://www.bom.gov.au,Latest 72 hours weather observations for each station (30 min intervals).,http://www.bom.gov.au/products
BoMLatest_94995_IDN60801,Lord Howe Island,BoM,BoM_Latest,Public,NA,NA,-31.5421,159.0786,Bureau of Meteorology,ross.searle@csiro.au,http://www.bom.gov.au,http://www.bom.gov.au,Latest 72 hours weather observations for each station (30 min intervals).,http://www.bom.gov.au/products
BoMLatest_95995_IDN60801,Lord Howe Island Windy Point,BoM,BoM_Latest,Public,NA,NA,-31.5381,159.0733,Bureau of Meteorology,ross.searle@csiro.au,http://www.bom.gov.au,http://www.bom.gov.au,Latest 72 hours weather observations for each station (30 min intervals).,http://www.bom.gov.au/products
BoMLatest_94996_IDN60801,Norfolk Island,BoM,BoM_Latest,Public,NA,NA,-29.0389,167.9408,Bureau of Meteorology,ross.searle@csiro.au,http://www.bom.gov.au,http://www.bom.gov.au,Latest 72 hours weather observations for each station (30 min intervals).,http://www.bom.gov.au/products
BoMLatest_94182_IDQ60801,Coconut Island,BoM,BoM_Latest,Public,NA,NA,-10.0511,143.0686,Bureau of Meteorology,ross.searle@csiro.au,http://www.bom.gov.au,http://www.bom.gov.au,Latest 72 hours weather observations for each station (30 min intervals).,http://www.bom.gov.au/products
BoMLatest_94183_IDQ60801,Coen Airport,BoM,BoM_Latest,Public,NA,NA,-13.7606,143.1183,Bureau of Meteorology,ross.searle@csiro.au,http://www.bom.gov.au,http://www.bom.gov.au,Latest 72 hours weather observations for each station (30 min intervals).,http://www.bom.gov.au/products
BoMLatest_94174_IDQ60801,Horn Island,BoM,BoM_Latest,Public,NA,NA,-10.5844,142.29,Bureau of Meteorology,ross.searle@csiro.au,http://www.bom.gov.au,http://www.bom.gov.au,Latest 72 hours weather observations for each station (30 min intervals).,http://www.bom.gov.au/products
BoMLatest_94186_IDQ60801,Lockhart River,BoM,BoM_Latest,Public,NA,NA,-12.785,143.3047,Bureau of Meteorology,ross.searle@csiro.au,http://www.bom.gov.au,http://www.bom.gov.au,Latest 72 hours weather observations for each station (30 min intervals).,http://www.bom.gov.au/products
BoMLatest_94276_IDQ60801,Palmerville,BoM,BoM_Latest,Public,NA,NA,-15.9999,144.0754,Bureau of Meteorology,ross.searle@csiro.au,http://www.bom.gov.au,http://www.bom.gov.au,Latest 72 hours weather observations for each station (30 min intervals).,http://www.bom.gov.au/products
BoMLatest_94170_IDQ60801,Weipa,BoM,BoM_Latest,Public,NA,NA,-12.6778,141.9208,Bureau of Meteorology,ross.searle@csiro.au,http://www.bom.gov.au,http://www.bom.gov.au,Latest 72 hours weather observations for each station (30 min intervals).,http://www.bom.gov.au/products
BoMLatest_94260_IDQ60801,Burketown Airport,BoM,BoM_Latest,Public,NA,NA,-17.7483,139.5356,Bureau of Meteorology,ross.searle@csiro.au,http://www.bom.gov.au,http://www.bom.gov.au,Latest 72 hours weather observations for each station (30 min intervals).,http://www.bom.gov.au/products
BoMLatest_94268_IDQ60801,Kowanyama,BoM,BoM_Latest,Public,NA,NA,-15.4818,141.7483,Bureau of Meteorology,ross.searle@csiro.au,http://www.bom.gov.au,http://www.bom.gov.au,Latest 72 hours weather observations for each station (30 min intervals).,http://www.bom.gov.au/products
BoMLatest_94254_IDQ60801,Mornington Island Airport,BoM,BoM_Latest,Public,NA,NA,-16.662,139.1655,Bureau of Meteorology,ross.searle@csiro.au,http://www.bom.gov.au,http://www.bom.gov.au,Latest 72 hours weather observations for each station (30 min intervals).,http://www.bom.gov.au/products
BoMLatest_94266_IDQ60801,Normanton,BoM,BoM_Latest,Public,NA,NA,-17.6872,141.0733,Bureau of Meteorology,ross.searle@csiro.au,http://www.bom.gov.au,http://www.bom.gov.au,Latest 72 hours weather observations for each station (30 min intervals).,http://www.bom.gov.au/products
BoMLatest_94257_IDQ60801,Sweers Island,BoM,BoM_Latest,Public,NA,NA,-17.1142,139.5981,Bureau of Meteorology,ross.searle@csiro.au,http://www.bom.gov.au,http://www.bom.gov.au,Latest 72 hours weather observations for each station (30 min intervals).,http://www.bom.gov.au/products
BoMLatest_94261_IDQ60801,Century Mine,BoM,BoM_Latest,Public,NA,NA,-18.7569,138.7056,Bureau of Meteorology,ross.searle@csiro.au,http://www.bom.gov.au,http://www.bom.gov.au,Latest 72 hours weather observations for each station (30 min intervals).,http://www.bom.gov.au/products
BoMLatest_94356_IDQ60801,Charters Towers,BoM,BoM_Latest,Public,NA,NA,-20.0464,146.2708,Bureau of Meteorology,ross.searle@csiro.au,http://www.bom.gov.au,http://www.bom.gov.au,Latest 72 hours weather observations for each station (30 min intervals).,http://www.bom.gov.au/products
BoMLatest_94274_IDQ60801,Georgetown Airport,BoM,BoM_Latest,Public,NA,NA,-18.3039,143.5306,Bureau of Meteorology,ross.searle@csiro.au,http://www.bom.gov.au,http://www.bom.gov.au,Latest 72 hours weather observations for each station (30 min intervals).,http://www.bom.gov.au/products
BoMLatest_94343_IDQ60801,Hughenden,BoM,BoM_Latest,Public,NA,NA,-20.8192,144.2333,Bureau of Meteorology,ross.searle@csiro.au,http://www.bom.gov.au,http://www.bom.gov.au,Latest 72 hours weather observations for each station (30 min intervals).,http://www.bom.gov.au/products
BoMLatest_94341_IDQ60801,Richmond,BoM,BoM_Latest,Public,NA,NA,-20.7017,143.1167,Bureau of Meteorology,ross.searle@csiro.au,http://www.bom.gov.au,http://www.bom.gov.au,Latest 72 hours weather observations for each station (30 min intervals).,http://www.bom.gov.au/products
BoMLatest_94284_IDQ60801,Arlington Reef,BoM,BoM_Latest,Public,NA,NA,-16.7226,146.1124,Bureau of Meteorology,ross.searle@csiro.au,http://www.bom.gov.au,http://www.bom.gov.au,Latest 72 hours weather observations for each station (30 min intervals).,http://www.bom.gov.au/products
BoMLatest_94287_IDQ60801,Cairns,BoM,BoM_Latest,Public,NA,NA,-16.8736,145.7458,Bureau of Meteorology,ross.searle@csiro.au,http://www.bom.gov.au,http://www.bom.gov.au,Latest 72 hours weather observations for each station (30 min intervals).,http://www.bom.gov.au/products
BoMLatest_94288_IDQ60801,Cairns Racecourse,BoM,BoM_Latest,Public,NA,NA,-16.9463,145.7474,Bureau of Meteorology,ross.searle@csiro.au,http://www.bom.gov.au,http://www.bom.gov.au,Latest 72 hours weather observations for each station (30 min intervals).,http://www.bom.gov.au/products
BoMLatest_94188_IDQ60801,Cape Flattery,BoM,BoM_Latest,Public,NA,NA,-14.9672,145.3106,Bureau of Meteorology,ross.searle@csiro.au,http://www.bom.gov.au,http://www.bom.gov.au,Latest 72 hours weather observations for each station (30 min intervals).,http://www.bom.gov.au/products
BoMLatest_94292_IDQ60801,Cardwell,BoM,BoM_Latest,Public,NA,NA,-18.2544,146.0192,Bureau of Meteorology,ross.searle@csiro.au,http://www.bom.gov.au,http://www.bom.gov.au,Latest 72 hours weather observations for each station (30 min intervals).,http://www.bom.gov.au/products
BoMLatest_95283_IDQ60801,Cooktown,BoM,BoM_Latest,Public,NA,NA,-15.4461,145.1861,Bureau of Meteorology,ross.searle@csiro.au,http://www.bom.gov.au,http://www.bom.gov.au,Latest 72 hours weather observations for each station (30 min intervals).,http://www.bom.gov.au/products
BoMLatest_94291_IDQ60801,Innisfail,BoM,BoM_Latest,Public,NA,NA,-17.5249,146.0345,Bureau of Meteorology,ross.searle@csiro.au,http://www.bom.gov.au,http://www.bom.gov.au,Latest 72 hours weather observations for each station (30 min intervals).,http://www.bom.gov.au/products
BoMLatest_94285_IDQ60801,Low Isles,BoM,BoM_Latest,Public,NA,NA,-16.3842,145.5592,Bureau of Meteorology,ross.searle@csiro.au,http://www.bom.gov.au,http://www.bom.gov.au,Latest 72 hours weather observations for each station (30 min intervals).,http://www.bom.gov.au/products
BoMLatest_94295_IDQ60801,Lucinda,BoM,BoM_Latest,Public,NA,NA,-18.5203,146.3861,Bureau of Meteorology,ross.searle@csiro.au,http://www.bom.gov.au,http://www.bom.gov.au,Latest 72 hours weather observations for each station (30 min intervals).,http://www.bom.gov.au/products
BoMLatest_95286_IDQ60801,Mareeba,BoM,BoM_Latest,Public,NA,NA,-17.0672,145.4283,Bureau of Meteorology,ross.searle@csiro.au,http://www.bom.gov.au,http://www.bom.gov.au,Latest 72 hours weather observations for each station (30 min intervals).,http://www.bom.gov.au/products
BoMLatest_95292_IDQ60801,South Johnstone,BoM,BoM_Latest,Public,NA,NA,-17.6053,145.9972,Bureau of Meteorology,ross.searle@csiro.au,http://www.bom.gov.au,http://www.bom.gov.au,Latest 72 hours weather observations for each station (30 min intervals).,http://www.bom.gov.au/products
BoMLatest_95296_IDQ60801,Alva Beach,BoM,BoM_Latest,Public,NA,NA,-19.4569,147.4833,Bureau of Meteorology,ross.searle@csiro.au,http://www.bom.gov.au,http://www.bom.gov.au,Latest 72 hours weather observations for each station (30 min intervals).,http://www.bom.gov.au/products
BoMLatest_95295_IDQ60801,Ayr,BoM,BoM_Latest,Public,NA,NA,-19.6169,147.3758,Bureau of Meteorology,ross.searle@csiro.au,http://www.bom.gov.au,http://www.bom.gov.au,Latest 72 hours weather observations for each station (30 min intervals).,http://www.bom.gov.au/products
BoMLatest_94383_IDQ60801,Bowen Airport AWS,BoM,BoM_Latest,Public,NA,NA,-20.0154,148.2138,Bureau of Meteorology,ross.searle@csiro.au,http://www.bom.gov.au,http://www.bom.gov.au,Latest 72 hours weather observations for each station (30 min intervals).,http://www.bom.gov.au/products
BoMLatest_94297_IDQ60801,Cape Ferguson,BoM,BoM_Latest,Public,NA,NA,-19.2774,147.0586,Bureau of Meteorology,ross.searle@csiro.au,http://www.bom.gov.au,http://www.bom.gov.au,Latest 72 hours weather observations for each station (30 min intervals).,http://www.bom.gov.au/products
BoMLatest_95291_IDQ60801,Ingham,BoM,BoM_Latest,Public,NA,NA,-18.6494,146.1769,Bureau of Meteorology,ross.searle@csiro.au,http://www.bom.gov.au,http://www.bom.gov.au,Latest 72 hours weather observations for each station (30 min intervals).,http://www.bom.gov.au/products
BoMLatest_94294_IDQ60801,Townsville,BoM,BoM_Latest,Public,NA,NA,-19.2483,146.7661,Bureau of Meteorology,ross.searle@csiro.au,http://www.bom.gov.au,http://www.bom.gov.au,Latest 72 hours weather observations for each station (30 min intervals).,http://www.bom.gov.au/products
BoMLatest_95293_IDQ60801,Woolshed,BoM,BoM_Latest,Public,NA,NA,-19.4167,146.5364,Bureau of Meteorology,ross.searle@csiro.au,http://www.bom.gov.au,http://www.bom.gov.au,Latest 72 hours weather observations for each station (30 min intervals).,http://www.bom.gov.au/products
BoMLatest_94360_IDQ60801,Collinsville,BoM,BoM_Latest,Public,NA,NA,-20.5533,147.8464,Bureau of Meteorology,ross.searle@csiro.au,http://www.bom.gov.au,http://www.bom.gov.au,Latest 72 hours weather observations for each station (30 min intervals).,http://www.bom.gov.au/products
BoMLatest_94368_IDQ60801,Hamilton Island,BoM,BoM_Latest,Public,NA,NA,-20.3658,148.9536,Bureau of Meteorology,ross.searle@csiro.au,http://www.bom.gov.au,http://www.bom.gov.au,Latest 72 hours weather observations for each station (30 min intervals).,http://www.bom.gov.au/products
BoMLatest_99367_IDQ60801,Hay Point,BoM,BoM_Latest,Public,NA,NA,-21.2894,149.3008,Bureau of Meteorology,ross.searle@csiro.au,http://www.bom.gov.au,http://www.bom.gov.au,Latest 72 hours weather observations for each station (30 min intervals).,http://www.bom.gov.au/products
BoMLatest_94367_IDQ60801,Mackay,BoM,BoM_Latest,Public,NA,NA,-21.1172,149.2169,Bureau of Meteorology,ross.searle@csiro.au,http://www.bom.gov.au,http://www.bom.gov.au,Latest 72 hours weather observations for each station (30 min intervals).,http://www.bom.gov.au/products
BoMLatest_95367_IDQ60801,Mackay Airport,BoM,BoM_Latest,Public,NA,NA,-21.1706,149.1794,Bureau of Meteorology,ross.searle@csiro.au,http://www.bom.gov.au,http://www.bom.gov.au,Latest 72 hours weather observations for each station (30 min intervals).,http://www.bom.gov.au/products
BoMLatest_94372_IDQ60801,Middle Percy Island,BoM,BoM_Latest,Public,NA,NA,-21.6628,150.2711,Bureau of Meteorology,ross.searle@csiro.au,http://www.bom.gov.au,http://www.bom.gov.au,Latest 72 hours weather observations for each station (30 min intervals).,http://www.bom.gov.au/products
BoMLatest_94365_IDQ60801,Proserpine,BoM,BoM_Latest,Public,NA,NA,-20.4925,148.555,Bureau of Meteorology,ross.searle@csiro.au,http://www.bom.gov.au,http://www.bom.gov.au,Latest 72 hours weather observations for each station (30 min intervals).,http://www.bom.gov.au/products
BoMLatest_94376_IDQ60801,Biloela,BoM,BoM_Latest,Public,NA,NA,-24.4935,150.5709,Bureau of Meteorology,ross.searle@csiro.au,http://www.bom.gov.au,http://www.bom.gov.au,Latest 72 hours weather observations for each station (30 min intervals).,http://www.bom.gov.au/products
BoMLatest_94380_IDQ60801,Gladstone,BoM,BoM_Latest,Public,NA,NA,-23.8553,151.2628,Bureau of Meteorology,ross.searle@csiro.au,http://www.bom.gov.au,http://www.bom.gov.au,Latest 72 hours weather observations for each station (30 min intervals).,http://www.bom.gov.au/products
BoMLatest_94381_IDQ60801,Gladstone Airport,BoM,BoM_Latest,Public,NA,NA,-23.8697,151.2214,Bureau of Meteorology,ross.searle@csiro.au,http://www.bom.gov.au,http://www.bom.gov.au,Latest 72 hours weather observations for each station (30 min intervals).,http://www.bom.gov.au/products
BoMLatest_94386_IDQ60801,Heron Island,BoM,BoM_Latest,Public,NA,NA,-23.4417,151.9125,Bureau of Meteorology,ross.searle@csiro.au,http://www.bom.gov.au,http://www.bom.gov.au,Latest 72 hours weather observations for each station (30 min intervals).,http://www.bom.gov.au/products
BoMLatest_94374_IDQ60801,Rockhampton,BoM,BoM_Latest,Public,NA,NA,-23.3753,150.4775,Bureau of Meteorology,ross.searle@csiro.au,http://www.bom.gov.au,http://www.bom.gov.au,Latest 72 hours weather observations for each station (30 min intervals).,http://www.bom.gov.au/products
BoMLatest_95298_IDQ60801,Rosslyn Bay Harbour,BoM,BoM_Latest,Public,NA,NA,-23.161,150.7901,Bureau of Meteorology,ross.searle@csiro.au,http://www.bom.gov.au,http://www.bom.gov.au,Latest 72 hours weather observations for each station (30 min intervals).,http://www.bom.gov.au/products
BoMLatest_95369_IDQ60801,St Lawrence,BoM,BoM_Latest,Public,NA,NA,-22.3472,149.5242,Bureau of Meteorology,ross.searle@csiro.au,http://www.bom.gov.au,http://www.bom.gov.au,Latest 72 hours weather observations for each station (30 min intervals).,http://www.bom.gov.au/products
BoMLatest_95370_IDQ60801,Williamson,BoM,BoM_Latest,Public,NA,NA,-22.4703,150.1786,Bureau of Meteorology,ross.searle@csiro.au,http://www.bom.gov.au,http://www.bom.gov.au,Latest 72 hours weather observations for each station (30 min intervals).,http://www.bom.gov.au/products
BoMLatest_94370_IDQ60801,Samuel Hill,BoM,BoM_Latest,Public,NA,NA,-22.7433,150.6578,Bureau of Meteorology,ross.searle@csiro.au,http://www.bom.gov.au,http://www.bom.gov.au,Latest 72 hours weather observations for each station (30 min intervals).,http://www.bom.gov.au/products
BoMLatest_94373_IDQ60801,Yeppoon,BoM,BoM_Latest,Public,NA,NA,-23.1364,150.7506,Bureau of Meteorology,ross.searle@csiro.au,http://www.bom.gov.au,http://www.bom.gov.au,Latest 72 hours weather observations for each station (30 min intervals).,http://www.bom.gov.au/products
BoMLatest_94398_IDQ60801,Blackwater Airport,BoM,BoM_Latest,Public,NA,NA,-23.6015,148.8074,Bureau of Meteorology,ross.searle@csiro.au,http://www.bom.gov.au,http://www.bom.gov.au,Latest 72 hours weather observations for each station (30 min intervals).,http://www.bom.gov.au/products
BoMLatest_94395_IDQ60801,Clermont Airport,BoM,BoM_Latest,Public,NA,NA,-22.7756,147.6217,Bureau of Meteorology,ross.searle@csiro.au,http://www.bom.gov.au,http://www.bom.gov.au,Latest 72 hours weather observations for each station (30 min intervals).,http://www.bom.gov.au/products
BoMLatest_94363_IDQ60801,Emerald,BoM,BoM_Latest,Public,NA,NA,-23.5694,148.1756,Bureau of Meteorology,ross.searle@csiro.au,http://www.bom.gov.au,http://www.bom.gov.au,Latest 72 hours weather observations for each station (30 min intervals).,http://www.bom.gov.au/products
BoMLatest_94399_IDQ60801,Lochington,BoM,BoM_Latest,Public,NA,NA,-23.9424,147.525,Bureau of Meteorology,ross.searle@csiro.au,http://www.bom.gov.au,http://www.bom.gov.au,Latest 72 hours weather observations for each station (30 min intervals).,http://www.bom.gov.au/products
BoMLatest_94397_IDQ60801,Moranbah Airport,BoM,BoM_Latest,Public,NA,NA,-22.0644,148.0758,Bureau of Meteorology,ross.searle@csiro.au,http://www.bom.gov.au,http://www.bom.gov.au,Latest 72 hours weather observations for each station (30 min intervals).,http://www.bom.gov.au/products
BoMLatest_94396_IDQ60801,Rolleston Airport,BoM,BoM_Latest,Public,NA,NA,-24.4617,148.6264,Bureau of Meteorology,ross.searle@csiro.au,http://www.bom.gov.au,http://www.bom.gov.au,Latest 72 hours weather observations for each station (30 min intervals).,http://www.bom.gov.au/products
BoMLatest_95362_IDQ60801,Springsure,BoM,BoM_Latest,Public,NA,NA,-24.123,148.0856,Bureau of Meteorology,ross.searle@csiro.au,http://www.bom.gov.au,http://www.bom.gov.au,Latest 72 hours weather observations for each station (30 min intervals).,http://www.bom.gov.au/products
BoMLatest_94525_IDQ60801,Taroom,BoM,BoM_Latest,Public,NA,NA,-25.6408,149.7958,Bureau of Meteorology,ross.searle@csiro.au,http://www.bom.gov.au,http://www.bom.gov.au,Latest 72 hours weather observations for each station (30 min intervals).,http://www.bom.gov.au/products
BoMLatest_94350_IDQ60801,Barcaldine,BoM,BoM_Latest,Public,NA,NA,-23.5544,145.2883,Bureau of Meteorology,ross.searle@csiro.au,http://www.bom.gov.au,http://www.bom.gov.au,Latest 72 hours weather observations for each station (30 min intervals).,http://www.bom.gov.au/products
BoMLatest_95351_IDQ60801,Blackall,BoM,BoM_Latest,Public,NA,NA,-24.4303,145.4306,Bureau of Meteorology,ross.searle@csiro.au,http://www.bom.gov.au,http://www.bom.gov.au,Latest 72 hours weather observations for each station (30 min intervals).,http://www.bom.gov.au/products
BoMLatest_94345_IDQ60801,Isisford,BoM,BoM_Latest,Public,NA,NA,-24.2591,144.4406,Bureau of Meteorology,ross.searle@csiro.au,http://www.bom.gov.au,http://www.bom.gov.au,Latest 72 hours weather observations for each station (30 min intervals).,http://www.bom.gov.au/products
BoMLatest_94346_IDQ60801,Longreach,BoM,BoM_Latest,Public,NA,NA,-23.4397,144.2828,Bureau of Meteorology,ross.searle@csiro.au,http://www.bom.gov.au,http://www.bom.gov.au,Latest 72 hours weather observations for each station (30 min intervals).,http://www.bom.gov.au/products
BoMLatest_94355_IDQ60801,Tambo,BoM,BoM_Latest,Public,NA,NA,-24.8819,146.2564,Bureau of Meteorology,ross.searle@csiro.au,http://www.bom.gov.au,http://www.bom.gov.au,Latest 72 hours weather observations for each station (30 min intervals).,http://www.bom.gov.au/products
BoMLatest_94342_IDQ60801,Winton,BoM,BoM_Latest,Public,NA,NA,-22.3617,143.0836,Bureau of Meteorology,ross.searle@csiro.au,http://www.bom.gov.au,http://www.bom.gov.au,Latest 72 hours weather observations for each station (30 min intervals).,http://www.bom.gov.au/products
BoMLatest_94255_IDQ60801,Camooweal,BoM,BoM_Latest,Public,NA,NA,-19.9225,138.1214,Bureau of Meteorology,ross.searle@csiro.au,http://www.bom.gov.au,http://www.bom.gov.au,Latest 72 hours weather observations for each station (30 min intervals).,http://www.bom.gov.au/products
BoMLatest_94347_IDQ60801,Carters Bore,BoM,BoM_Latest,Public,NA,NA,-20.9358,139.2964,Bureau of Meteorology,ross.searle@csiro.au,http://www.bom.gov.au,http://www.bom.gov.au,Latest 72 hours weather observations for each station (30 min intervals).,http://www.bom.gov.au/products
BoMLatest_94335_IDQ60801,Cloncurry,BoM,BoM_Latest,Public,NA,NA,-20.6664,140.505,Bureau of Meteorology,ross.searle@csiro.au,http://www.bom.gov.au,http://www.bom.gov.au,Latest 72 hours weather observations for each station (30 min intervals).,http://www.bom.gov.au/products
BoMLatest_94337_IDQ60801,Julia Creek,BoM,BoM_Latest,Public,NA,NA,-20.6672,141.7214,Bureau of Meteorology,ross.searle@csiro.au,http://www.bom.gov.au,http://www.bom.gov.au,Latest 72 hours weather observations for each station (30 min intervals).,http://www.bom.gov.au/products
BoMLatest_94348_IDQ60801,Lake Julius,BoM,BoM_Latest,Public,NA,NA,-20.1167,139.7256,Bureau of Meteorology,ross.searle@csiro.au,http://www.bom.gov.au,http://www.bom.gov.au,Latest 72 hours weather observations for each station (30 min intervals).,http://www.bom.gov.au/products
BoMLatest_94332_IDQ60801,Mount Isa,BoM,BoM_Latest,Public,NA,NA,-20.6778,139.4875,Bureau of Meteorology,ross.searle@csiro.au,http://www.bom.gov.au,http://www.bom.gov.au,Latest 72 hours weather observations for each station (30 min intervals).,http://www.bom.gov.au/products
BoMLatest_94349_IDQ60801,New May Downs,BoM,BoM_Latest,Public,NA,NA,-20.59,139.3411,Bureau of Meteorology,ross.searle@csiro.au,http://www.bom.gov.au,http://www.bom.gov.au,Latest 72 hours weather observations for each station (30 min intervals).,http://www.bom.gov.au/products
BoMLatest_94336_IDQ60801,The Monument,BoM,BoM_Latest,Public,NA,NA,-21.8125,139.9267,Bureau of Meteorology,ross.searle@csiro.au,http://www.bom.gov.au,http://www.bom.gov.au,Latest 72 hours weather observations for each station (30 min intervals).,http://www.bom.gov.au/products
BoMLatest_94338_IDQ60801,Trepell,BoM,BoM_Latest,Public,NA,NA,-21.84,140.8925,Bureau of Meteorology,ross.searle@csiro.au,http://www.bom.gov.au,http://www.bom.gov.au,Latest 72 hours weather observations for each station (30 min intervals).,http://www.bom.gov.au/products
BoMLatest_94344_IDQ60801,Urandangi,BoM,BoM_Latest,Public,NA,NA,-21.5979,138.3665,Bureau of Meteorology,ross.searle@csiro.au,http://www.bom.gov.au,http://www.bom.gov.au,Latest 72 hours weather observations for each station (30 min intervals).,http://www.bom.gov.au/products
BoMLatest_95487_IDQ60801,Ballera,BoM,BoM_Latest,Public,NA,NA,-27.4008,141.8114,Bureau of Meteorology,ross.searle@csiro.au,http://www.bom.gov.au,http://www.bom.gov.au,Latest 72 hours weather observations for each station (30 min intervals).,http://www.bom.gov.au/products
BoMLatest_95482_IDQ60801,Birdsville,BoM,BoM_Latest,Public,NA,NA,-25.8975,139.3472,Bureau of Meteorology,ross.searle@csiro.au,http://www.bom.gov.au,http://www.bom.gov.au,Latest 72 hours weather observations for each station (30 min intervals).,http://www.bom.gov.au/products
BoMLatest_95492_IDQ60801,Thargomindah,BoM,BoM_Latest,Public,NA,NA,-27.9867,143.815,Bureau of Meteorology,ross.searle@csiro.au,http://www.bom.gov.au,http://www.bom.gov.au,Latest 72 hours weather observations for each station (30 min intervals).,http://www.bom.gov.au/products
BoMLatest_94513_IDQ60801,Bollon,BoM,BoM_Latest,Public,NA,NA,-28.0331,147.4795,Bureau of Meteorology,ross.searle@csiro.au,http://www.bom.gov.au,http://www.bom.gov.au,Latest 72 hours weather observations for each station (30 min intervals).,http://www.bom.gov.au/products
BoMLatest_94510_IDQ60801,Charleville,BoM,BoM_Latest,Public,NA,NA,-26.4139,146.2558,Bureau of Meteorology,ross.searle@csiro.au,http://www.bom.gov.au,http://www.bom.gov.au,Latest 72 hours weather observations for each station (30 min intervals).,http://www.bom.gov.au/products
BoMLatest_94500_IDQ60801,Cunnamulla,BoM,BoM_Latest,Public,NA,NA,-28.0689,145.6822,Bureau of Meteorology,ross.searle@csiro.au,http://www.bom.gov.au,http://www.bom.gov.au,Latest 72 hours weather observations for each station (30 min intervals).,http://www.bom.gov.au/products
BoMLatest_94511_IDQ60801,Injune,BoM,BoM_Latest,Public,NA,NA,-25.8428,148.5669,Bureau of Meteorology,ross.searle@csiro.au,http://www.bom.gov.au,http://www.bom.gov.au,Latest 72 hours weather observations for each station (30 min intervals).,http://www.bom.gov.au/products
BoMLatest_94514_IDQ60801,Mitchell,BoM,BoM_Latest,Public,NA,NA,-26.4888,147.9777,Bureau of Meteorology,ross.searle@csiro.au,http://www.bom.gov.au,http://www.bom.gov.au,Latest 72 hours weather observations for each station (30 min intervals).,http://www.bom.gov.au/products
BoMLatest_94515_IDQ60801,Roma,BoM,BoM_Latest,Public,NA,NA,-26.5477,148.771,Bureau of Meteorology,ross.searle@csiro.au,http://www.bom.gov.au,http://www.bom.gov.au,Latest 72 hours weather observations for each station (30 min intervals).,http://www.bom.gov.au/products
BoMLatest_94517_IDQ60801,St George,BoM,BoM_Latest,Public,NA,NA,-28.0489,148.5942,Bureau of Meteorology,ross.searle@csiro.au,http://www.bom.gov.au,http://www.bom.gov.au,Latest 72 hours weather observations for each station (30 min intervals).,http://www.bom.gov.au/products
BoMLatest_94521_IDQ60801,Surat,BoM,BoM_Latest,Public,NA,NA,-27.1591,149.0702,Bureau of Meteorology,ross.searle@csiro.au,http://www.bom.gov.au,http://www.bom.gov.au,Latest 72 hours weather observations for each station (30 min intervals).,http://www.bom.gov.au/products
BoMLatest_94553_IDQ60801,Applethorpe,BoM,BoM_Latest,Public,NA,NA,-28.6217,151.9533,Bureau of Meteorology,ross.searle@csiro.au,http://www.bom.gov.au,http://www.bom.gov.au,Latest 72 hours weather observations for each station (30 min intervals).,http://www.bom.gov.au/products
BoMLatest_94542_IDQ60801,Dalby,BoM,BoM_Latest,Public,NA,NA,-27.1605,151.2634,Bureau of Meteorology,ross.searle@csiro.au,http://www.bom.gov.au,http://www.bom.gov.au,Latest 72 hours weather observations for each station (30 min intervals).,http://www.bom.gov.au/products
BoMLatest_95529_IDQ60801,Miles,BoM,BoM_Latest,Public,NA,NA,-26.6569,150.1819,Bureau of Meteorology,ross.searle@csiro.au,http://www.bom.gov.au,http://www.bom.gov.au,Latest 72 hours weather observations for each station (30 min intervals).,http://www.bom.gov.au/products
BoMLatest_94552_IDQ60801,Oakey,BoM,BoM_Latest,Public,NA,NA,-27.4034,151.7413,Bureau of Meteorology,ross.searle@csiro.au,http://www.bom.gov.au,http://www.bom.gov.au,Latest 72 hours weather observations for each station (30 min intervals).,http://www.bom.gov.au/products
BoMLatest_94550_IDQ60801,Stanthorpe,BoM,BoM_Latest,Public,NA,NA,-28.6617,151.9339,Bureau of Meteorology,ross.searle@csiro.au,http://www.bom.gov.au,http://www.bom.gov.au,Latest 72 hours weather observations for each station (30 min intervals).,http://www.bom.gov.au/products
BoMLatest_95533_IDQ60801,Texas,BoM,BoM_Latest,Public,NA,NA,-28.8544,151.1681,Bureau of Meteorology,ross.searle@csiro.au,http://www.bom.gov.au,http://www.bom.gov.au,Latest 72 hours weather observations for each station (30 min intervals).,http://www.bom.gov.au/products
BoMLatest_95551_IDQ60801,Toowoomba,BoM,BoM_Latest,Public,NA,NA,-27.5425,151.9134,Bureau of Meteorology,ross.searle@csiro.au,http://www.bom.gov.au,http://www.bom.gov.au,Latest 72 hours weather observations for each station (30 min intervals).,http://www.bom.gov.au/products
BoMLatest_94555_IDQ60801,Warwick,BoM,BoM_Latest,Public,NA,NA,-28.2061,152.1003,Bureau of Meteorology,ross.searle@csiro.au,http://www.bom.gov.au,http://www.bom.gov.au,Latest 72 hours weather observations for each station (30 min intervals).,http://www.bom.gov.au/products
BoMLatest_94387_IDQ60801,Bundaberg,BoM,BoM_Latest,Public,NA,NA,-24.9069,152.323,Bureau of Meteorology,ross.searle@csiro.au,http://www.bom.gov.au,http://www.bom.gov.au,Latest 72 hours weather observations for each station (30 min intervals).,http://www.bom.gov.au/products
BoMLatest_94584_IDQ60801,Double Island Point,BoM,BoM_Latest,Public,NA,NA,-25.9319,153.1906,Bureau of Meteorology,ross.searle@csiro.au,http://www.bom.gov.au,http://www.bom.gov.au,Latest 72 hours weather observations for each station (30 min intervals).,http://www.bom.gov.au/products
BoMLatest_95543_IDQ60801,Gayndah,BoM,BoM_Latest,Public,NA,NA,-25.6167,151.6156,Bureau of Meteorology,ross.searle@csiro.au,http://www.bom.gov.au,http://www.bom.gov.au,Latest 72 hours weather observations for each station (30 min intervals).,http://www.bom.gov.au/products
BoMLatest_94566_IDQ60801,Gympie,BoM,BoM_Latest,Public,NA,NA,-26.1831,152.6414,Bureau of Meteorology,ross.searle@csiro.au,http://www.bom.gov.au,http://www.bom.gov.au,Latest 72 hours weather observations for each station (30 min intervals).,http://www.bom.gov.au/products
BoMLatest_95565_IDQ60801,Hervey Bay,BoM,BoM_Latest,Public,NA,NA,-25.322,152.8817,Bureau of Meteorology,ross.searle@csiro.au,http://www.bom.gov.au,http://www.bom.gov.au,Latest 72 hours weather observations for each station (30 min intervals).,http://www.bom.gov.au/products
BoMLatest_94549_IDQ60801,Kingaroy,BoM,BoM_Latest,Public,NA,NA,-26.5737,151.8398,Bureau of Meteorology,ross.searle@csiro.au,http://www.bom.gov.au,http://www.bom.gov.au,Latest 72 hours weather observations for each station (30 min intervals).,http://www.bom.gov.au/products
BoMLatest_94388_IDQ60801,Lady Elliot Island,BoM,BoM_Latest,Public,NA,NA,-24.1116,152.7161,Bureau of Meteorology,ross.searle@csiro.au,http://www.bom.gov.au,http://www.bom.gov.au,Latest 72 hours weather observations for each station (30 min intervals).,http://www.bom.gov.au/products
BoMLatest_94567_IDQ60801,Maryborough,BoM,BoM_Latest,Public,NA,NA,-25.5132,152.7152,Bureau of Meteorology,ross.searle@csiro.au,http://www.bom.gov.au,http://www.bom.gov.au,Latest 72 hours weather observations for each station (30 min intervals).,http://www.bom.gov.au/products
BoMLatest_94377_IDQ60801,Monto Township,BoM,BoM_Latest,Public,NA,NA,-24.8642,151.1247,Bureau of Meteorology,ross.searle@csiro.au,http://www.bom.gov.au,http://www.bom.gov.au,Latest 72 hours weather observations for each station (30 min intervals).,http://www.bom.gov.au/products
BoMLatest_94564_IDQ60801,Rainbow Beach,BoM,BoM_Latest,Public,NA,NA,-25.9007,153.0891,Bureau of Meteorology,ross.searle@csiro.au,http://www.bom.gov.au,http://www.bom.gov.au,Latest 72 hours weather observations for each station (30 min intervals).,http://www.bom.gov.au/products
BoMLatest_94390_IDQ60801,Sandy Cape,BoM,BoM_Latest,Public,NA,NA,-24.7297,153.2083,Bureau of Meteorology,ross.searle@csiro.au,http://www.bom.gov.au,http://www.bom.gov.au,Latest 72 hours weather observations for each station (30 min intervals).,http://www.bom.gov.au/products
BoMLatest_94384_IDQ60801,Seventeen Seventy,BoM,BoM_Latest,Public,NA,NA,-24.1568,151.8889,Bureau of Meteorology,ross.searle@csiro.au,http://www.bom.gov.au,http://www.bom.gov.au,Latest 72 hours weather observations for each station (30 min intervals).,http://www.bom.gov.au/products
BoMLatest_94568_IDQ60801,Amberley,BoM,BoM_Latest,Public,NA,NA,-27.6297,152.7111,Bureau of Meteorology,ross.searle@csiro.au,http://www.bom.gov.au,http://www.bom.gov.au,Latest 72 hours weather observations for each station (30 min intervals).,http://www.bom.gov.au/products
BoMLatest_94575_IDQ60801,Archerfield,BoM,BoM_Latest,Public,NA,NA,-27.5717,153.0078,Bureau of Meteorology,ross.searle@csiro.au,http://www.bom.gov.au,http://www.bom.gov.au,Latest 72 hours weather observations for each station (30 min intervals).,http://www.bom.gov.au/products
BoMLatest_94591_IDQ60801,Banana Bank,BoM,BoM_Latest,Public,NA,NA,-27.5327,153.3333,Bureau of Meteorology,ross.searle@csiro.au,http://www.bom.gov.au,http://www.bom.gov.au,Latest 72 hours weather observations for each station (30 min intervals).,http://www.bom.gov.au/products
BoMLatest_95566_IDQ60801,Beerburrum,BoM,BoM_Latest,Public,NA,NA,-26.9586,152.9619,Bureau of Meteorology,ross.searle@csiro.au,http://www.bom.gov.au,http://www.bom.gov.au,Latest 72 hours weather observations for each station (30 min intervals).,http://www.bom.gov.au/products
BoMLatest_95575_IDQ60801,Beaudesert AWS,BoM,BoM_Latest,Public,NA,NA,-27.9707,152.9898,Bureau of Meteorology,ross.searle@csiro.au,http://www.bom.gov.au,http://www.bom.gov.au,Latest 72 hours weather observations for each station (30 min intervals).,http://www.bom.gov.au/products
BoMLatest_94576_IDQ60801,Brisbane,BoM,BoM_Latest,Public,NA,NA,-27.4808,153.0389,Bureau of Meteorology,ross.searle@csiro.au,http://www.bom.gov.au,http://www.bom.gov.au,Latest 72 hours weather observations for each station (30 min intervals).,http://www.bom.gov.au/products
BoMLatest_94578_IDQ60801,Brisbane Airport,BoM,BoM_Latest,Public,NA,NA,-27.3917,153.1292,Bureau of Meteorology,ross.searle@csiro.au,http://www.bom.gov.au,http://www.bom.gov.au,Latest 72 hours weather observations for each station (30 min intervals).,http://www.bom.gov.au/products
BoMLatest_94594_IDQ60801,Cape Moreton,BoM,BoM_Latest,Public,NA,NA,-27.0314,153.4661,Bureau of Meteorology,ross.searle@csiro.au,http://www.bom.gov.au,http://www.bom.gov.au,Latest 72 hours weather observations for each station (30 min intervals).,http://www.bom.gov.au/products
BoMLatest_94592_IDQ60801,Coolangatta,BoM,BoM_Latest,Public,NA,NA,-28.1681,153.5053,Bureau of Meteorology,ross.searle@csiro.au,http://www.bom.gov.au,http://www.bom.gov.au,Latest 72 hours weather observations for each station (30 min intervals).,http://www.bom.gov.au/products
BoMLatest_94562_IDQ60801,Gatton,BoM,BoM_Latest,Public,NA,NA,-27.5436,152.3375,Bureau of Meteorology,ross.searle@csiro.au,http://www.bom.gov.au,http://www.bom.gov.au,Latest 72 hours weather observations for each station (30 min intervals).,http://www.bom.gov.au/products
BoMLatest_94580_IDQ60801,Gold Coast Seaway,BoM,BoM_Latest,Public,NA,NA,-27.939,153.4283,Bureau of Meteorology,ross.searle@csiro.au,http://www.bom.gov.au,http://www.bom.gov.au,Latest 72 hours weather observations for each station (30 min intervals).,http://www.bom.gov.au/products
BoMLatest_95581_IDQ60801,Logan City,BoM,BoM_Latest,Public,NA,NA,-27.6839,153.1947,Bureau of Meteorology,ross.searle@csiro.au,http://www.bom.gov.au,http://www.bom.gov.au,Latest 72 hours weather observations for each station (30 min intervals).,http://www.bom.gov.au/products
BoMLatest_95572_IDQ60801,Nambour,BoM,BoM_Latest,Public,NA,NA,-26.6442,152.9383,Bureau of Meteorology,ross.searle@csiro.au,http://www.bom.gov.au,http://www.bom.gov.au,Latest 72 hours weather observations for each station (30 min intervals).,http://www.bom.gov.au/products
BoMLatest_94593_IDQ60801,Point Lookout,BoM,BoM_Latest,Public,NA,NA,-27.4361,153.5456,Bureau of Meteorology,ross.searle@csiro.au,http://www.bom.gov.au,http://www.bom.gov.au,Latest 72 hours weather observations for each station (30 min intervals).,http://www.bom.gov.au/products
BoMLatest_95591_IDQ60801,Redcliffe,BoM,BoM_Latest,Public,NA,NA,-27.2169,153.0922,Bureau of Meteorology,ross.searle@csiro.au,http://www.bom.gov.au,http://www.bom.gov.au,Latest 72 hours weather observations for each station (30 min intervals).,http://www.bom.gov.au/products
BoMLatest_94561_IDQ60801,Redland (Alexandra Hills),BoM,BoM_Latest,Public,NA,NA,-27.5433,153.2394,Bureau of Meteorology,ross.searle@csiro.au,http://www.bom.gov.au,http://www.bom.gov.au,Latest 72 hours weather observations for each station (30 min intervals).,http://www.bom.gov.au/products
BoMLatest_94581_IDQ60801,Spitfire Channel,BoM,BoM_Latest,Public,NA,NA,-27.0481,153.2664,Bureau of Meteorology,ross.searle@csiro.au,http://www.bom.gov.au,http://www.bom.gov.au,Latest 72 hours weather observations for each station (30 min intervals).,http://www.bom.gov.au/products
BoMLatest_94569_IDQ60801,Sunshine Coast Airport,BoM,BoM_Latest,Public,NA,NA,-26.6006,153.0903,Bureau of Meteorology,ross.searle@csiro.au,http://www.bom.gov.au,http://www.bom.gov.au,Latest 72 hours weather observations for each station (30 min intervals).,http://www.bom.gov.au/products
BoMLatest_94570_IDQ60801,Tewantin,BoM,BoM_Latest,Public,NA,NA,-26.3911,153.0403,Bureau of Meteorology,ross.searle@csiro.au,http://www.bom.gov.au,http://www.bom.gov.au,Latest 72 hours weather observations for each station (30 min intervals).,http://www.bom.gov.au/products
BoMLatest_95288_IDQ60801,Bougainville Reef,BoM,BoM_Latest,Public,NA,NA,-15.4877,147.1183,Bureau of Meteorology,ross.searle@csiro.au,http://www.bom.gov.au,http://www.bom.gov.au,Latest 72 hours weather observations for each station (30 min intervals).,http://www.bom.gov.au/products
BoMLatest_94394_IDQ60801,Cato Island,BoM,BoM_Latest,Public,NA,NA,-23.2503,155.542,Bureau of Meteorology,ross.searle@csiro.au,http://www.bom.gov.au,http://www.bom.gov.au,Latest 72 hours weather observations for each station (30 min intervals).,http://www.bom.gov.au/products
BoMLatest_94371_IDQ60801,Creal Reef,BoM,BoM_Latest,Public,NA,NA,-20.5303,150.3773,Bureau of Meteorology,ross.searle@csiro.au,http://www.bom.gov.au,http://www.bom.gov.au,Latest 72 hours weather observations for each station (30 min intervals).,http://www.bom.gov.au/products
BoMLatest_94290_IDQ60801,Flinders Reef,BoM,BoM_Latest,Public,NA,NA,-17.7195,148.4478,Bureau of Meteorology,ross.searle@csiro.au,http://www.bom.gov.au,http://www.bom.gov.au,Latest 72 hours weather observations for each station (30 min intervals).,http://www.bom.gov.au/products
BoMLatest_94393_IDQ60801,Frederick Reef,BoM,BoM_Latest,Public,NA,NA,-20.9375,154.4019,Bureau of Meteorology,ross.searle@csiro.au,http://www.bom.gov.au,http://www.bom.gov.au,Latest 72 hours weather observations for each station (30 min intervals).,http://www.bom.gov.au/products
BoMLatest_94379_IDQ60801,Gannett Cay,BoM,BoM_Latest,Public,NA,NA,-21.9769,152.4707,Bureau of Meteorology,ross.searle@csiro.au,http://www.bom.gov.au,http://www.bom.gov.au,Latest 72 hours weather observations for each station (30 min intervals).,http://www.bom.gov.au/products
BoMLatest_94289_IDQ60801,Holmes Reef,BoM,BoM_Latest,Public,NA,NA,-16.4683,147.8734,Bureau of Meteorology,ross.searle@csiro.au,http://www.bom.gov.au,http://www.bom.gov.au,Latest 72 hours weather observations for each station (30 min intervals).,http://www.bom.gov.au/products
BoMLatest_94298_IDQ60801,Marion Reef,BoM,BoM_Latest,Public,NA,NA,-19.0964,152.3892,Bureau of Meteorology,ross.searle@csiro.au,http://www.bom.gov.au,http://www.bom.gov.au,Latest 72 hours weather observations for each station (30 min intervals).,http://www.bom.gov.au/products
BoMLatest_94299_IDQ60801,Willis Island,BoM,BoM_Latest,Public,NA,NA,-16.2878,149.9652,Bureau of Meteorology,ross.searle@csiro.au,http://www.bom.gov.au,http://www.bom.gov.au,Latest 72 hours weather observations for each station (30 min intervals).,http://www.bom.gov.au/products
BoMLatest_94850_IDT60801,King Island Airport,BoM,BoM_Latest,Public,NA,NA,-39.8801,143.8829,Bureau of Meteorology,ross.searle@csiro.au,http://www.bom.gov.au,http://www.bom.gov.au,Latest 72 hours weather observations for each station (30 min intervals).,http://www.bom.gov.au/products
BoMLatest_95963_IDT60801,Burnie Port,BoM,BoM_Latest,Public,NA,NA,-41.05,145.9149,Bureau of Meteorology,ross.searle@csiro.au,http://www.bom.gov.au,http://www.bom.gov.au,Latest 72 hours weather observations for each station (30 min intervals).,http://www.bom.gov.au/products
BoMLatest_95954_IDT60801,Cape Grim,BoM,BoM_Latest,Public,NA,NA,-40.6764,144.6922,Bureau of Meteorology,ross.searle@csiro.au,http://www.bom.gov.au,http://www.bom.gov.au,Latest 72 hours weather observations for each station (30 min intervals).,http://www.bom.gov.au/products
BoMLatest_95960_IDT60801,Devonport Airport,BoM,BoM_Latest,Public,NA,NA,-41.1701,146.4289,Bureau of Meteorology,ross.searle@csiro.au,http://www.bom.gov.au,http://www.bom.gov.au,Latest 72 hours weather observations for each station (30 min intervals).,http://www.bom.gov.au/products
BoMLatest_95956_IDT60801,Luncheon Hill,BoM,BoM_Latest,Public,NA,NA,-41.1492,145.1517,Bureau of Meteorology,ross.searle@csiro.au,http://www.bom.gov.au,http://www.bom.gov.au,Latest 72 hours weather observations for each station (30 min intervals).,http://www.bom.gov.au/products
BoMLatest_94950_IDT60801,Marrawah,BoM,BoM_Latest,Public,NA,NA,-40.9089,144.7094,Bureau of Meteorology,ross.searle@csiro.au,http://www.bom.gov.au,http://www.bom.gov.au,Latest 72 hours weather observations for each station (30 min intervals).,http://www.bom.gov.au/products
BoMLatest_94955_IDT60801,Sheffield,BoM,BoM_Latest,Public,NA,NA,-41.3886,146.3219,Bureau of Meteorology,ross.searle@csiro.au,http://www.bom.gov.au,http://www.bom.gov.au,Latest 72 hours weather observations for each station (30 min intervals).,http://www.bom.gov.au/products
BoMLatest_94953_IDT60801,Smithton,BoM,BoM_Latest,Public,NA,NA,-40.8347,145.0847,Bureau of Meteorology,ross.searle@csiro.au,http://www.bom.gov.au,http://www.bom.gov.au,Latest 72 hours weather observations for each station (30 min intervals).,http://www.bom.gov.au/products
BoMLatest_95957_IDT60801,Wynyard,BoM,BoM_Latest,Public,NA,NA,-40.9964,145.7311,Bureau of Meteorology,ross.searle@csiro.au,http://www.bom.gov.au,http://www.bom.gov.au,Latest 72 hours weather observations for each station (30 min intervals).,http://www.bom.gov.au/products
BoMLatest_95969_IDT60801,Cressy,BoM,BoM_Latest,Public,NA,NA,-41.7256,147.0794,Bureau of Meteorology,ross.searle@csiro.au,http://www.bom.gov.au,http://www.bom.gov.au,Latest 72 hours weather observations for each station (30 min intervals).,http://www.bom.gov.au/products
BoMLatest_94969_IDT60801,Launceston,BoM,BoM_Latest,Public,NA,NA,-41.4194,147.1219,Bureau of Meteorology,ross.searle@csiro.au,http://www.bom.gov.au,http://www.bom.gov.au,Latest 72 hours weather observations for each station (30 min intervals).,http://www.bom.gov.au/products
BoMLatest_95966_IDT60801,Launceston Airport,BoM,BoM_Latest,Public,NA,NA,-41.5492,147.2144,Bureau of Meteorology,ross.searle@csiro.au,http://www.bom.gov.au,http://www.bom.gov.au,Latest 72 hours weather observations for each station (30 min intervals).,http://www.bom.gov.au/products
BoMLatest_95964_IDT60801,Low Head,BoM,BoM_Latest,Public,NA,NA,-41.0547,146.7874,Bureau of Meteorology,ross.searle@csiro.au,http://www.bom.gov.au,http://www.bom.gov.au,Latest 72 hours weather observations for each station (30 min intervals).,http://www.bom.gov.au/products
BoMLatest_94980_IDT60801,Flinders Island Airport,BoM,BoM_Latest,Public,NA,NA,-40.0911,148.0024,Bureau of Meteorology,ross.searle@csiro.au,http://www.bom.gov.au,http://www.bom.gov.au,Latest 72 hours weather observations for each station (30 min intervals).,http://www.bom.gov.au/products
BoMLatest_94949_IDT60801,Hogan Island,BoM,BoM_Latest,Public,NA,NA,-39.2225,146.9841,Bureau of Meteorology,ross.searle@csiro.au,http://www.bom.gov.au,http://www.bom.gov.au,Latest 72 hours weather observations for each station (30 min intervals).,http://www.bom.gov.au/products
BoMLatest_94983_IDT60801,Larapuna (Eddystone Point),BoM,BoM_Latest,Public,NA,NA,-40.9928,148.3467,Bureau of Meteorology,ross.searle@csiro.au,http://www.bom.gov.au,http://www.bom.gov.au,Latest 72 hours weather observations for each station (30 min intervals).,http://www.bom.gov.au/products
BoMLatest_94972_IDT60801,Scottsdale,BoM,BoM_Latest,Public,NA,NA,-41.1708,147.4883,Bureau of Meteorology,ross.searle@csiro.au,http://www.bom.gov.au,http://www.bom.gov.au,Latest 72 hours weather observations for each station (30 min intervals).,http://www.bom.gov.au/products
BoMLatest_95985_IDT60801,Swan Island,BoM,BoM_Latest,Public,NA,NA,-40.7292,148.125,Bureau of Meteorology,ross.searle@csiro.au,http://www.bom.gov.au,http://www.bom.gov.au,Latest 72 hours weather observations for each station (30 min intervals).,http://www.bom.gov.au/products
BoMLatest_94985_IDT60801,Ross,BoM,BoM_Latest,Public,NA,NA,-42.025,147.4953,Bureau of Meteorology,ross.searle@csiro.au,http://www.bom.gov.au,http://www.bom.gov.au,Latest 72 hours weather observations for each station (30 min intervals).,http://www.bom.gov.au/products
BoMLatest_94971_IDT60801,Melton Mowbray,BoM,BoM_Latest,Public,NA,NA,-42.4928,147.1981,Bureau of Meteorology,ross.searle@csiro.au,http://www.bom.gov.au,http://www.bom.gov.au,Latest 72 hours weather observations for each station (30 min intervals).,http://www.bom.gov.au/products
BoMLatest_94960_IDT60801,Tunnack,BoM,BoM_Latest,Public,NA,NA,-42.4543,147.4612,Bureau of Meteorology,ross.searle@csiro.au,http://www.bom.gov.au,http://www.bom.gov.au,Latest 72 hours weather observations for each station (30 min intervals).,http://www.bom.gov.au/products
BoMLatest_94974_IDT60801,Cape Sorell,BoM,BoM_Latest,Public,NA,NA,-42.1986,145.17,Bureau of Meteorology,ross.searle@csiro.au,http://www.bom.gov.au,http://www.bom.gov.au,Latest 72 hours weather observations for each station (30 min intervals).,http://www.bom.gov.au/products
BoMLatest_95961_IDT60801,Low Rocky Point,BoM,BoM_Latest,Public,NA,NA,-42.9831,145.5025,Bureau of Meteorology,ross.searle@csiro.au,http://www.bom.gov.au,http://www.bom.gov.au,Latest 72 hours weather observations for each station (30 min intervals).,http://www.bom.gov.au/products
BoMLatest_94962_IDT60801,Maatsuyker Island,BoM,BoM_Latest,Public,NA,NA,-43.6578,146.2711,Bureau of Meteorology,ross.searle@csiro.au,http://www.bom.gov.au,http://www.bom.gov.au,Latest 72 hours weather observations for each station (30 min intervals).,http://www.bom.gov.au/products
BoMLatest_94963_IDT60801,Maydena,BoM,BoM_Latest,Public,NA,NA,-42.7567,146.6239,Bureau of Meteorology,ross.searle@csiro.au,http://www.bom.gov.au,http://www.bom.gov.au,Latest 72 hours weather observations for each station (30 min intervals).,http://www.bom.gov.au/products
BoMLatest_95952_IDT60801,Mount Read,BoM,BoM_Latest,Public,NA,NA,-41.8444,145.5417,Bureau of Meteorology,ross.searle@csiro.au,http://www.bom.gov.au,http://www.bom.gov.au,Latest 72 hours weather observations for each station (30 min intervals).,http://www.bom.gov.au/products
BoMLatest_95958_IDT60801,Scotts Peak,BoM,BoM_Latest,Public,NA,NA,-43.0425,146.2722,Bureau of Meteorology,ross.searle@csiro.au,http://www.bom.gov.au,http://www.bom.gov.au,Latest 72 hours weather observations for each station (30 min intervals).,http://www.bom.gov.au/products
BoMLatest_94956_IDT60801,Strahan,BoM,BoM_Latest,Public,NA,NA,-42.155,145.2908,Bureau of Meteorology,ross.searle@csiro.au,http://www.bom.gov.au,http://www.bom.gov.au,Latest 72 hours weather observations for each station (30 min intervals).,http://www.bom.gov.au/products
BoMLatest_95962_IDT60801,Warra,BoM,BoM_Latest,Public,NA,NA,-43.0609,146.704,Bureau of Meteorology,ross.searle@csiro.au,http://www.bom.gov.au,http://www.bom.gov.au,Latest 72 hours weather observations for each station (30 min intervals).,http://www.bom.gov.au/products
BoMLatest_94959_IDT60801,Butlers Gorge,BoM,BoM_Latest,Public,NA,NA,-42.2753,146.2758,Bureau of Meteorology,ross.searle@csiro.au,http://www.bom.gov.au,http://www.bom.gov.au,Latest 72 hours weather observations for each station (30 min intervals).,http://www.bom.gov.au/products
BoMLatest_94976_IDT60801,Lake St Clair,BoM,BoM_Latest,Public,NA,NA,-42.1178,146.1772,Bureau of Meteorology,ross.searle@csiro.au,http://www.bom.gov.au,http://www.bom.gov.au,Latest 72 hours weather observations for each station (30 min intervals).,http://www.bom.gov.au/products
BoMLatest_95959_IDT60801,Liawenee,BoM,BoM_Latest,Public,NA,NA,-41.8997,146.6694,Bureau of Meteorology,ross.searle@csiro.au,http://www.bom.gov.au,http://www.bom.gov.au,Latest 72 hours weather observations for each station (30 min intervals).,http://www.bom.gov.au/products
BoMLatest_94964_IDT60801,Bushy Park,BoM,BoM_Latest,Public,NA,NA,-42.7097,146.8983,Bureau of Meteorology,ross.searle@csiro.au,http://www.bom.gov.au,http://www.bom.gov.au,Latest 72 hours weather observations for each station (30 min intervals).,http://www.bom.gov.au/products
BoMLatest_94957_IDT60801,Ouse,BoM,BoM_Latest,Public,NA,NA,-42.4842,146.7106,Bureau of Meteorology,ross.searle@csiro.au,http://www.bom.gov.au,http://www.bom.gov.au,Latest 72 hours weather observations for each station (30 min intervals).,http://www.bom.gov.au/products
BoMLatest_95974_IDT60801,Fingal,BoM,BoM_Latest,Public,NA,NA,-41.6428,147.9664,Bureau of Meteorology,ross.searle@csiro.au,http://www.bom.gov.au,http://www.bom.gov.au,Latest 72 hours weather observations for each station (30 min intervals).,http://www.bom.gov.au/products
BoMLatest_94987_IDT60801,Friendly Beaches,BoM,BoM_Latest,Public,NA,NA,-41.9953,148.2794,Bureau of Meteorology,ross.searle@csiro.au,http://www.bom.gov.au,http://www.bom.gov.au,Latest 72 hours weather observations for each station (30 min intervals).,http://www.bom.gov.au/products
BoMLatest_94979_IDT60801,Lake Leake,BoM,BoM_Latest,Public,NA,NA,-42.0067,147.7975,Bureau of Meteorology,ross.searle@csiro.au,http://www.bom.gov.au,http://www.bom.gov.au,Latest 72 hours weather observations for each station (30 min intervals).,http://www.bom.gov.au/products
BoMLatest_95988_IDT60801,Maria Island,BoM,BoM_Latest,Public,NA,NA,-42.6621,148.0179,Bureau of Meteorology,ross.searle@csiro.au,http://www.bom.gov.au,http://www.bom.gov.au,Latest 72 hours weather observations for each station (30 min intervals).,http://www.bom.gov.au/products
BoMLatest_95984_IDT60801,Orford,BoM,BoM_Latest,Public,NA,NA,-42.5519,147.8753,Bureau of Meteorology,ross.searle@csiro.au,http://www.bom.gov.au,http://www.bom.gov.au,Latest 72 hours weather observations for each station (30 min intervals).,http://www.bom.gov.au/products
BoMLatest_95987_IDT60801,Spring Bay,BoM,BoM_Latest,Public,NA,NA,-42.5464,147.9308,Bureau of Meteorology,ross.searle@csiro.au,http://www.bom.gov.au,http://www.bom.gov.au,Latest 72 hours weather observations for each station (30 min intervals).,http://www.bom.gov.au/products
BoMLatest_95981_IDT60801,St Helens,BoM,BoM_Latest,Public,NA,NA,-41.3381,148.2792,Bureau of Meteorology,ross.searle@csiro.au,http://www.bom.gov.au,http://www.bom.gov.au,Latest 72 hours weather observations for each station (30 min intervals).,http://www.bom.gov.au/products
BoMLatest_94981_IDT60801,Swansea,BoM,BoM_Latest,Public,NA,NA,-42.1381,148.0736,Bureau of Meteorology,ross.searle@csiro.au,http://www.bom.gov.au,http://www.bom.gov.au,Latest 72 hours weather observations for each station (30 min intervals).,http://www.bom.gov.au/products
BoMLatest_94967_IDT60801,Cape Bruny,BoM,BoM_Latest,Public,NA,NA,-43.4892,147.1453,Bureau of Meteorology,ross.searle@csiro.au,http://www.bom.gov.au,http://www.bom.gov.au,Latest 72 hours weather observations for each station (30 min intervals).,http://www.bom.gov.au/products
BoMLatest_95967_IDT60801,Cape Bruny AWS,BoM,BoM_Latest,Public,NA,NA,-43.4886,147.1444,Bureau of Meteorology,ross.searle@csiro.au,http://www.bom.gov.au,http://www.bom.gov.au,Latest 72 hours weather observations for each station (30 min intervals).,http://www.bom.gov.au/products
BoMLatest_95972_IDT60801,Campania,BoM,BoM_Latest,Public,NA,NA,-42.6867,147.4258,Bureau of Meteorology,ross.searle@csiro.au,http://www.bom.gov.au,http://www.bom.gov.au,Latest 72 hours weather observations for each station (30 min intervals).,http://www.bom.gov.au/products
BoMLatest_94988_IDT60801,Dennes Point,BoM,BoM_Latest,Public,NA,NA,-43.0639,147.3567,Bureau of Meteorology,ross.searle@csiro.au,http://www.bom.gov.au,http://www.bom.gov.au,Latest 72 hours weather observations for each station (30 min intervals).,http://www.bom.gov.au/products
BoMLatest_94961_IDT60801,Dover,BoM,BoM_Latest,Public,NA,NA,-43.333,146.998,Bureau of Meteorology,ross.searle@csiro.au,http://www.bom.gov.au,http://www.bom.gov.au,Latest 72 hours weather observations for each station (30 min intervals).,http://www.bom.gov.au/products
BoMLatest_94951_IDT60801,Dunalley,BoM,BoM_Latest,Public,NA,NA,-42.9017,147.7894,Bureau of Meteorology,ross.searle@csiro.au,http://www.bom.gov.au,http://www.bom.gov.au,Latest 72 hours weather observations for each station (30 min intervals).,http://www.bom.gov.au/products
BoMLatest_95977_IDT60801,Grove,BoM,BoM_Latest,Public,NA,NA,-42.9858,147.0742,Bureau of Meteorology,ross.searle@csiro.au,http://www.bom.gov.au,http://www.bom.gov.au,Latest 72 hours weather observations for each station (30 min intervals).,http://www.bom.gov.au/products
BoMLatest_94970_IDT60801,Hobart,BoM,BoM_Latest,Public,NA,NA,-42.8897,147.3278,Bureau of Meteorology,ross.searle@csiro.au,http://www.bom.gov.au,http://www.bom.gov.au,Latest 72 hours weather observations for each station (30 min intervals).,http://www.bom.gov.au/products
BoMLatest_94975_IDT60801,Hobart Airport,BoM,BoM_Latest,Public,NA,NA,-42.8339,147.5033,Bureau of Meteorology,ross.searle@csiro.au,http://www.bom.gov.au,http://www.bom.gov.au,Latest 72 hours weather observations for each station (30 min intervals).,http://www.bom.gov.au/products
BoMLatest_95979_IDT60801,kunanyi / Mount Wellington,BoM,BoM_Latest,Public,NA,NA,-42.895,147.2358,Bureau of Meteorology,ross.searle@csiro.au,http://www.bom.gov.au,http://www.bom.gov.au,Latest 72 hours weather observations for each station (30 min intervals).,http://www.bom.gov.au/products
BoMLatest_95986_IDT60801,Tasman Island,BoM,BoM_Latest,Public,NA,NA,-43.2397,148.0025,Bureau of Meteorology,ross.searle@csiro.au,http://www.bom.gov.au,http://www.bom.gov.au,Latest 72 hours weather observations for each station (30 min intervals).,http://www.bom.gov.au/products
BoMLatest_94977_IDT60801,Hartz Mountains,BoM,BoM_Latest,Public,NA,NA,-43.2006,146.7683,Bureau of Meteorology,ross.searle@csiro.au,http://www.bom.gov.au,http://www.bom.gov.au,Latest 72 hours weather observations for each station (30 min intervals).,http://www.bom.gov.au/products
BoMLatest_94998_IDT60801,Macquarie Island,BoM,BoM_Latest,Public,NA,NA,-54.4994,158.9369,Bureau of Meteorology,ross.searle@csiro.au,http://www.bom.gov.au,http://www.bom.gov.au,Latest 72 hours weather observations for each station (30 min intervals).,http://www.bom.gov.au/products
BoMLatest_94839_IDV60801,Charlton,BoM,BoM_Latest,Public,NA,NA,-36.2847,143.3341,Bureau of Meteorology,ross.searle@csiro.au,http://www.bom.gov.au,http://www.bom.gov.au,Latest 72 hours weather observations for each station (30 min intervals).,http://www.bom.gov.au/products
BoMLatest_94838_IDV60801,Hopetoun Airport,BoM,BoM_Latest,Public,NA,NA,-35.7151,142.3569,Bureau of Meteorology,ross.searle@csiro.au,http://www.bom.gov.au,http://www.bom.gov.au,Latest 72 hours weather observations for each station (30 min intervals).,http://www.bom.gov.au/products
BoMLatest_94844_IDV60801,Kerang,BoM,BoM_Latest,Public,NA,NA,-35.7236,143.9197,Bureau of Meteorology,ross.searle@csiro.au,http://www.bom.gov.au,http://www.bom.gov.au,Latest 72 hours weather observations for each station (30 min intervals).,http://www.bom.gov.au/products
BoMLatest_94693_IDV60801,Mildura,BoM,BoM_Latest,Public,NA,NA,-34.2358,142.0867,Bureau of Meteorology,ross.searle@csiro.au,http://www.bom.gov.au,http://www.bom.gov.au,Latest 72 hours weather observations for each station (30 min intervals).,http://www.bom.gov.au/products
